all,Bg Long,address,Bg Lat,latitude,longitude
McDonald's,-88.11,"1300 Marquette Dr, Romeoville, IL 60446",41.63,41.63,-88.11
McDonald's,-111.998407,"534 N Harrisville Rd, Ogden, UT 84404",41.271876,41.271876,-111.998407
McDonald's,-111.946488,"3875 Washington Blvd, Ogden, UT 84403",41.185002,41.185002,-111.946488
McDonald's,-111.796354,"850 E Main St, American Fork, UT 84003",40.393885,40.393885,-111.796354
McDonald's,-111.96844,"4848 S 900 W, Ogden, UT 84405",41.164148,41.164148,-111.96844
McDonald's,-111.992694,"909 W Riverdale Rd, Riverdale, UT 84405",41.176697,41.176697,-111.992694
McDonald's,-111.946488,"5745 Harrison Blvd, South Ogden, UT 84403",41.185002,41.185002,-111.946488
McDonald's,-111.866853,"303 E 12300 S, Draper, UT 84020",40.508883,40.508883,-111.866853
McDonald's,-111.823364,"1877 Murray Holladay Rd, Holladay, UT 84117",40.667437,40.667437,-111.823364
McDonald's,-98.273749,"8036 Fm 2673, Canyon Lake, TX 78133",29.844295,29.844295,-98.273749
McDonald's,-97.307988,"WAL-MART Supercenter, Bastrop, TX 78602",30.118028,30.118028,-97.307988
McDonald's,-97.307988,"496 Highway 71 W, Bastrop, TX 78602",30.118028,30.118028,-97.307988
McDonald's,-97.65146,"620 S Ih 35, Georgetown, TX 78626",30.639953,30.639953,-97.65146
McDonald's,-97.411538,"220 Highway 290 E, Elgin, TX 78621",30.227768,30.227768,-97.411538
McDonald's,-97.805912,"3300 Bee Cave Rd, West Lake Hills, TX 78746",30.29132,30.29132,-97.805912
McDonald's,-97.95795,"1901 Interstate 44, Chickasha, OK 73018",35.02759,35.02759,-97.95795
McDonald's,-97.480464,"I-35, Norman, OK 73069",35.200412,35.200412,-97.480464
McDonald's,-97.617646,"3524 Hill Star Dr, Newcastle, OK 73065",35.241991,35.241991,-97.617646
McDonald's,-97.733309,"400 N Trade Center Ter Apt 101, Mustang, OK 73064",35.391289,35.391289,-97.733309
McDonald's,-97.522603,"1235 N Kelly Ave, Edmond, OK 73003",35.673776,35.673776,-97.522603
McDonald's,-97.638217,"5812 NW Expressway St, Warr Acres, OK 73132",35.55421,35.55421,-97.638217
McDonald's,-97.558907,"9001 S Pennsylvania Ave, Oklahoma City, OK 73159",35.384679,35.384679,-97.558907
McDonald's,-87.77,"5700 S Cicero Ave, Chicago, IL 60638",41.79,41.79,-87.77
McDonald's,-97.52668,"7525 S Western Ave, Oklahoma City, OK 73139",35.3845,35.3845,-97.52668
McDonald's,-97.418491,"1150 Alameda St, Norman, OK 73071",35.223852,35.223852,-97.418491
McDonald's,-87.77,"6430 S Cicero Ave, Chicago, IL 60638",41.79,41.79,-87.77
McDonald's,-70.738723,"Route 1, Kittery, ME 03904",43.108692,43.108692,-70.738723
McDonald's,-70.060612,"Lisbon Falls, ME 04252",43.996646,43.996646,-70.060612
McDonald's,-87.74,"5153 W Chicago Ave, Chicago, IL 60651",41.9,41.9,-87.74
McDonald's,-69.963854,"7 Gurnet Rd, Brunswick, ME 04011",43.916805,43.916805,-69.963854
McDonald's,-87.71,"6737 S Pulaski Rd, Chicago, IL 60629",41.78,41.78,-87.71
McDonald's,-70.187364,"750 Route 1, Yarmouth, ME 04096",43.800875,43.800875,-70.187364
McDonald's,-70.232764,"Rt 1, Falmouth, ME 04105",43.72049,43.72049,-70.232764
McDonald's,-90.417682,"741 E Fifteenth St, Yazoo City, MS 39194",32.85015,32.85015,-90.417682
McDonald's,-90.257342,"4675 Clinton Blvd, Jackson, MS 39209",32.328255,32.328255,-90.257342
McDonald's,-122.29699,"3392 Solano Ave, Napa, CA 94558",38.334514,38.334514,-122.29699
McDonald's,-87.82,"624 N Harlem Ave, River Forest, IL 60305",41.89,41.89,-87.82
McDonald's,-121.293466,"611 W Charter Way, Stockton, CA 95206",37.920692,37.920692,-121.293466
McDonald's,-121.324129,"4515 Pacific Ave, Stockton, CA 95207",38.003219,38.003219,-121.324129
McDonald's,-121.290719,"1049 E March Ln, Stockton, CA 95210",37.95362,37.95362,-121.290719
McDonald's,-121.365866,"3143 W Benjamin Holt Dr, Stockton, CA 95219",38.006728,38.006728,-121.365866
McDonald's,-121.260253,"841 E Kettleman Ln, Lodi, CA 95240",38.122174,38.122174,-121.260253
McDonald's,-121.289638,"270 G St, Lincoln, CA 95648",38.884667,38.884667,-121.289638
McDonald's,-121.148198,"1018 Riley St, Folsom, CA 95630",38.670193,38.670193,-121.148198
McDonald's,-121.259746,"8888 Madison Ave, Fair Oaks, CA 95628",38.655669,38.655669,-121.259746
McDonald's,-121.229879,"11250 White Rock Rd, Rancho Cordova, CA 95742",38.559422,38.559422,-121.229879
McDonald's,-121.279129,"2400 Sunrise Blvd, Gold River, CA 95670",38.604495,38.604495,-121.279129
McDonald's,-121.279129,"10655 Folsom Blvd, Rancho Cordova, CA 95670",38.604495,38.604495,-121.279129
McDonald's,-121.347731,"5301 Elkhorn Blvd, Sacramento, CA 95842",38.687873,38.687873,-121.347731
McDonald's,-121.364694,"7901 Watt Ave, Antelope, CA 95843",38.716813,38.716813,-121.364694
McDonald's,-121.279129,"10355 Folsom Blvd, Rancho Cordova, CA 95670",38.604495,38.604495,-121.279129
McDonald's,-121.344554,"5008 Auburn Blvd, Sacramento, CA 95841",38.66265,38.66265,-121.344554
McDonald's,-121.329692,"3560 Bradshaw Rd, Sacramento, CA 95827",38.566279,38.566279,-121.329692
McDonald's,-121.406707,"4957 Watt Ave, North Highlands, CA 95660",38.636459,38.636459,-121.406707
McDonald's,-121.383161,"4121 Marconi Ave, Sacramento, CA 95821",38.623431,38.623431,-121.383161
McDonald's,-121.531556,"8940 Pocket Rd, Sacramento, CA 95831",38.494862,38.494862,-121.531556
McDonald's,-121.373753,"8901 Folsom Blvd, Sacramento, CA 95826",38.551991,38.551991,-121.373753
McDonald's,-121.444149,"6975 Stockton Blvd, Sacramento, CA 95823",38.47449,38.47449,-121.444149
McDonald's,-121.383161,"2535 Watt Ave, Sacramento, CA 95821",38.623431,38.623431,-121.383161
McDonald's,-121.444149,"4125 Florin Rd, Sacramento, CA 95823",38.47449,38.47449,-121.444149
McDonald's,-87.85,"11 N 1st Ave, Maywood, IL 60153",41.88,41.88,-87.85
McDonald's,-121.444576,"5425 Fruitridge Rd, Sacramento, CA 95820",38.534791,38.534791,-121.444576
McDonald's,-121.442884,"4242 Norwood Ave, Sacramento, CA 95838",38.64327,38.64327,-121.442884
McDonald's,-121.405309,"2320 Fair Oaks Blvd, Sacramento, CA 95825",38.591398,38.591398,-121.405309
McDonald's,-121.513631,"3773 Northgate Blvd, Sacramento, CA 95834",38.639454,38.639454,-121.513631
McDonald's,-121.440297,"5525 Folsom Blvd, Sacramento, CA 95819",38.568613,38.568613,-121.440297
McDonald's,-121.491374,"200 Richards Blvd, Sacramento, CA 95814",38.579912,38.579912,-121.491374
McDonald's,-121.330093,"7329 Fair Oaks Blvd, Carmichael, CA 95608",38.629982,38.629982,-121.330093
McDonald's,-106.547949,"East New Mexico 44, Bernalillo, NM 87004",35.321995,35.321995,-106.547949
McDonald's,-106.648646,"Albuquerque, NM 87101",35.084021,35.084021,-106.648646
McDonald's,-78.893297,"Lillington, NC 27546",35.362685,35.362685,-78.893297
McDonald's,-79.237669,"Steele St, Sanford, NC 27237",35.555091,35.555091,-79.237669
McDonald's,-78.596877,"110 Carillon Dr, Garner, NC 27529",35.67006,35.67006,-78.596877
McDonald's,-78.806054,"4801 NW Cary Pkwy, Cary, NC 27513",35.795497,35.795497,-78.806054
McDonald's,-84.209002,"410 S Main St, Dayton, OH 45402",39.758562,39.758562,-84.209002
McDonald's,-84.221615,"741 E Dixie Dr, Dayton, OH 45449",39.673947,39.673947,-84.221615
McDonald's,-84.0705,"35 S Main St, Waynesville, OH 45068",39.528606,39.528606,-84.0705
McDonald's,-84.221879,"775 W Central Ave, Springboro, OH 45066",39.558123,39.558123,-84.221879
McDonald's,-84.738906,"401 E High St, Oxford, OH 45056",39.500671,39.500671,-84.738906
McDonald's,-84.609018,"1230 Eaton Ave, Hamilton, OH 45013",39.402857,39.402857,-84.609018
McDonald's,-84.508048,"324 N 2nd St, Hamilton, OH 45011",39.400053,39.400053,-84.508048
McDonald's,-84.653126,"8530 Us Highway 42, Florence, KY 41042",38.989037,38.989037,-84.653126
McDonald's,-84.275902,"870 Eastgate South Dr, Cincinnati, OH 45245",39.068909,39.068909,-84.275902
McDonald's,-84.540967,"Erlanger, KY 41017",38.99991,38.99991,-84.540967
McDonald's,-84.291501,"2930 W Us Highway 22landen, Loveland, OH 45111",39.196775,39.196775,-84.291501
McDonald's,-84.469665,"600 Kemper Commons Cir, Springdale, OH 45246",39.287696,39.287696,-84.469665
McDonald's,-84.376037,"I 275, Sharonville, OH 45241",39.288822,39.288822,-84.376037
McDonald's,-87.65,"7601 S Vincennes Ave, Chicago, IL 60620",41.74,41.74,-87.65
McDonald's,-84.578744,"8339 Colerain Ave, Cincinnati, OH 45239",39.207151,39.207151,-84.578744
McDonald's,-84.393711,"4140 Hunt Rd, Cincinnati, OH 45236",39.206721,39.206721,-84.393711
McDonald's,-84.452411,"4524 Montgomery Rd, Norwood, OH 45212",39.161402,39.161402,-84.452411
McDonald's,-87.75,"3560 N Cicero Ave, Chicago, IL 60641",41.95,41.95,-87.75
McDonald's,-81.954028,"State Route 30, Wooster, OH 44691",40.793179,40.793179,-81.954028
McDonald's,-81.947634,"E Bowman St, Wooster, OH 44691",40.801505,40.801505,-81.947634
McDonald's,-82.606472,"11015 Us Highway 250 N, Milan, OH 44846",41.306211,41.306211,-82.606472
McDonald's,-80.843213,"2481 W Market St, Warren, OH 44485",41.237969,41.237969,-80.843213
McDonald's,-81.385961,"3934 Everhard Rd Nw, Canton, OH 44709",40.839029,40.839029,-81.385961
McDonald's,-81.238445,"6134 St, RT 14, Ravenna, OH 44266",41.158515,41.158515,-81.238445
McDonald's,-81.20594,"430 Water St, Chardon, OH 44024",41.572961,41.572961,-81.20594
McDonald's,-81.334616,"5745 Heisley Rd, Mentor, OH 44060",41.688515,41.688515,-81.334616
McDonald's,-81.348008,"9439 State Route 14, Streetsboro, OH 44241",41.249401,41.249401,-81.348008
McDonald's,-81.622978,"3265 W Market St, Fairlawn, OH 44333",41.134339,41.134339,-81.622978
McDonald's,-81.437122,"712 E Steels Corners Rd, Stow, OH 44224",41.174948,41.174948,-81.437122
McDonald's,-81.830914,"1625 Pearl Rd, Brunswick, OH 44212",41.247525,41.247525,-81.830914
McDonald's,-81.735134,"5304 Royalton Rd, North Royalton, OH 44133",41.314797,41.314797,-81.735134
McDonald's,-81.524451,"25640 Miles Rd, Bedford, OH 44146",41.389013,41.389013,-81.524451
McDonald's,-87.6,"29 E 87th St, Chicago, IL 60619",41.74,41.74,-87.6
McDonald's,-81.560256,"5114 Northfield Rd, Maple Heights, OH 44137",41.410885,41.410885,-81.560256
McDonald's,-81.781467,"6421 Pearl Rd, Cleveland, OH 44130",41.377971,41.377971,-81.781467
McDonald's,-81.702815,"3211 Clark Ave, Cleveland, OH 44109",41.447466,41.447466,-81.702815
McDonald's,-81.690755,"8950 Euclib Ave, Cleveland, OH 44101",41.504747,41.504747,-81.690755
McDonald's,-81.399732,"36212 Euclid Avenue, Willoughby, OH 44094",41.62615,41.62615,-81.399732
McDonald's,-81.736352,"4830 Ridge Rd, Cleveland, OH 44144",41.437251,41.437251,-81.736352
McDonald's,-83.756488,"Cumberland Ave, Middlesboro, KY 40965",36.61096,36.61096,-83.756488
McDonald's,-83.472789,"180 Veterans Blvd, Bryson City, NC 28713",35.408031,35.408031,-83.472789
McDonald's,-83.649176,"New Tazewell, TN 37825",36.418745,36.418745,-83.649176
McDonald's,-83.284304,"3624 Roy Messer Hwy, White Pine, TN 37890",36.08783,36.08783,-83.284304
McDonald's,-84.255264,"841 Oak Ridge Tpke, Oak Ridge, TN 37830",36.01478,36.01478,-84.255264
McDonald's,-83.981759,"1030 Hunters Xing, Alcoa, TN 37701",35.791903,35.791903,-83.981759
McDonald's,-83.92068,"Millertown Walmart Inside, Knoxville, TN 37901",35.960584,35.960584,-83.92068
McDonald's,-85.981903,"483 Gordonsville Hwy, Gordonsville, TN 38563",36.182015,36.182015,-85.981903
McDonald's,-87.036922,"110 Bear Creek Pike, Columbia, TN 38401",35.619781,35.619781,-87.036922
McDonald's,-86.454895,"Po Box 350, Gallatin, TN 37066",36.385379,36.385379,-86.454895
McDonald's,-86.775335,"410 Old Hickory Blvd, Brentwood, TN 37027",36.003695,36.003695,-86.775335
McDonald's,-86.663893,"154 McGavock Pike, Nashville, TN 37214",36.165149,36.165149,-86.663893
McDonald's,-97.963514,"14830 Lytle-Somerset Rd, Hondo, TX 78861",29.56341,29.56341,-97.963514
McDonald's,-87.76,"5600 N Menard Ave, Chicago, IL 60646",42,42,-87.76
McDonald's,-98.709193,"8036 Fm 2673, Canyon Lake, TX 78133",29.816972,29.816972,-98.709193
McDonald's,-87.87,"9449 Irving Park Rd, Schiller Park, IL 60176",41.96,41.96,-87.87
McDonald's,-98.410757,"11482 Perrin Beitel Rd, San Antonio, TX 78217",29.578656,29.578656,-98.410757
McDonald's,-98.523505,"4241 Woodcock Dr, San Antonio, TX 78228",29.423659,29.423659,-98.523505
McDonald's,-98.522743,"9800 Airport Blvd, San Antonio, TX 78216",29.512693,29.512693,-98.522743
McDonald's,-98.49262,"7300 Blanco Rd Ste 302, San Antonio, TX 78216",29.534284,29.534284,-98.49262
McDonald's,-98.456737,"721 San Pedro Ave, San Antonio, TX 78212",29.488785,29.488785,-98.456737
McDonald's,-98.470464,"9151 Fm 78, Converse, TX 78109",29.58508,29.58508,-98.470464
McDonald's,-81.884646,"330 Valley Hi Dr, San Antonio, TX 78227",29.63801,29.63801,-81.884646
McDonald's,-82.096279,"State Highway 16, Saint Augustine, FL 32080",29.943758,29.943758,-82.096279
McDonald's,-81.825339,"1310 Uss Daniel Boone Ave, Kings Bay, GA 31547",30.558729,30.558729,-81.825339
McDonald's,-81.596584,"542361 Us Highway 1, Callahan, FL 32011",30.094173,30.094173,-81.596584
McDonald's,-81.787852,"1625 County Road 210 W, Jacksonville, FL 32259",30.143043,30.143043,-81.787852
McDonald's,-81.495763,"11230 Saint Augustine Rd, Jacksonville, FL 32257",30.349197,30.349197,-81.495763
McDonald's,-81.587943,"7245 Merrill Rd, Jacksonville, FL 32277",30.36525,30.36525,-81.587943
McDonald's,-81.584655,"5000 Highway Ave, Jacksonville, FL 32254",30.332745,30.332745,-81.584655
McDonald's,-81.754763,"3828 Bee Ridge Rd, Sarasota, FL 34233",28.001886,28.001886,-81.754763
McDonald's,-81.776808,"787 S Washington Blvd, Sarasota, FL 34236",27.75154,27.75154,-81.776808
McDonald's,-87.65,"12700 S Ashland Ave, Calumet Park, IL 60827",41.67,41.67,-87.65
McDonald's,-82.522064,"3511 Fruitville Rd, Sarasota, FL 34237",27.4031,27.4031,-82.522064
McDonald's,-87.96,"2111 Midwest Rd, Oak Brook, IL 60523",41.84,41.84,-87.96
McDonald's,-87.94,"920 N York St, Elmhurst, IL 60126",41.89,41.89,-87.94
McDonald's,-82.518568,"8164 N Tamiami Trl, Sarasota, FL 34243",27.446237,27.446237,-82.518568
McDonald's,-81.953831,"2835 S Florida Ave, Lakeland, FL 33803",28.137163,28.137163,-81.953831
McDonald's,-82.718034,"650 150th Ave, Madeira Beach, FL 33708",27.75781,27.75781,-82.718034
McDonald's,-82.128945,"2909 Us Highway 19, Tarpon Springs, FL 34691",28.017052,28.017052,-82.128945
McDonald's,-82.760148,"Desoto Sq Mall, Bradenton, FL 34201",27.852181,27.852181,-82.760148
McDonald's,-82.63932,"1250 Bay Ave, Clearwater, FL 33756",27.77132,27.77132,-82.63932
McDonald's,-87.62,"2001 W Chgo Ave, Chicago, IL 60601",41.89,41.89,-87.62
McDonald's,-87.62,"Ohare International Airport, Chicago, IL 60601",41.89,41.89,-87.62
McDonald's,-82.769856,"539 N Missouri Ave, Clearwater, FL 33755",28.025668,28.025668,-82.769856
McDonald's,-82.745093,"27643 State Road 54, Wesley Chapel, FL 33543",27.973762,27.973762,-82.745093
McDonald's,-82.769856,"7695 Ulmerton Rd, Largo, FL 33771",28.025668,28.025668,-82.769856
McDonald's,-82.745881,"5170 Park Blvd, Pinellas Park, FL 33781",28.002064,28.002064,-82.745881
McDonald's,-82.683677,"7001 19th Way N, Saint Petersburg, FL 33702",27.891461,27.891461,-82.683677
McDonald's,-111.748894,"Sun City West, AZ 85375",33.3638,33.3638,-111.748894
McDonald's,-111.759847,"16252 N 138th Ln, Surprise, AZ 85374",33.317562,33.317562,-111.759847
McDonald's,-87.95,"1100 W Irving Park Rd, Bensenville, IL 60106",41.95,41.95,-87.95
McDonald's,-111.748894,"6535 W Happy Valley Rd, Peoria, AZ 85310",33.3638,33.3638,-111.748894
McDonald's,-111.830879,"7017 N Litchfield Rd, Luke Afb, AZ 85307",33.315759,33.315759,-111.830879
McDonald's,-111.841212,"3111 W Chandler Blvd, Chandler, AZ 85226",33.3879,33.3879,-111.841212
McDonald's,-111.923614,"1460 W Southern Ave, Mesa, AZ 85202",33.3051,33.3051,-111.923614
McDonald's,-112.257069,"5060 W Cactus Rd, Phoenix, AZ 85304",33.531768,33.531768,-112.257069
McDonald's,-111.932191,"Po Box 4910, Scottsdale, AZ 85261",33.428101,33.428101,-111.932191
McDonald's,-112.122879,"2321 W Bethany Home Rd, Phoenix, AZ 85015",33.513019,33.513019,-112.122879
McDonald's,-112.090337,"6005 S Central Ave, Phoenix, AZ 85042",33.450905,33.450905,-112.090337
McDonald's,-88.01,"809 Plainfield Rd, Downers Grove, IL 60516",41.76,41.76,-88.01
McDonald's,-112.030193,"1733 W van Buren St, Phoenix, AZ 85007",33.702534,33.702534,-112.030193
McDonald's,-112.22067,"24 St & Osborn, Phoenix, AZ 85001",33.528107,33.528107,-112.22067
McDonald's,-112.176934,"3848 W Pinnacle Peak Rd, Phoenix, AZ 85310",33.62284,33.62284,-112.176934
McDonald's,-93.858573,"I-94, Monticello, MN 55362",45.17614,45.17614,-93.858573
McDonald's,-92.985798,"141 Bridge Ave W, Delano, MN 55328",45.269846,45.269846,-92.985798
McDonald's,-93.49725,"13020 Riverdale Dr NW, Minneapolis, MN 55448",44.776722,44.776722,-93.49725
McDonald's,-93.252029,"3231 Northdale Blvd NW, Coon Rapids, MN 55448",45.158779,45.158779,-93.252029
McDonald's,-93.273599,"2410 W Industrial Blvd, Long Lake, MN 55356",44.76771,44.76771,-93.273599
McDonald's,-93.49725,"14200 Grand Ave, Burnsville, MN 55337",44.776722,44.776722,-93.49725
McDonald's,-93.580856,"9530 Black Oaks Ln N, Maple Grove, MN 55311",44.900372,44.900372,-93.580856
McDonald's,-87.79,"15920 Harlem Ave, Tinley Park, IL 60477",41.58,41.58,-87.79
McDonald's,-93.011181,"8101 Old Carriage Ct, Shakopee, MN 55379",45.080369,45.080369,-93.011181
McDonald's,-93.208004,"822 Highway 55, Hamel, MN 55340",45.171149,45.171149,-93.208004
McDonald's,-93.301244,"1759 Weir Dr, Saint Paul, MN 55125",45.187199,45.187199,-93.301244
McDonald's,-88,"2010 E Higgins Rd, Elk Grove Village, IL 60007",42.01,42.01,-88
McDonald's,-93.038072,"2730 Minnehaha Ave E, Maplewood, MN 55119",44.84173,44.84173,-93.038072
McDonald's,-93.003154,"2935 Southlawn Dr, Maplewood, MN 55109",44.951936,44.951936,-93.003154
McDonald's,-93.432813,"7088 E Fish Lake Rd, Osseo, MN 55311",44.86231,44.86231,-93.432813
McDonald's,-93.526839,"9000 85th Ave N, Brooklyn Park, MN 55445",44.964949,44.964949,-93.526839
McDonald's,-88.07,"3S010 Route 53, Glen Ellyn, IL 60137",41.9,41.9,-88.07
McDonald's,-87.95,"14298 S Bell Rd, Homer Glen, IL 60491",41.61,41.61,-87.95
McDonald's,-93.136637,"850 County Road E E, Vadnais Heights, MN 55127",44.804584,44.804584,-93.136637
McDonald's,-93.377549,"1351 Town Centre Dr, Saint Paul, MN 55123",45.110569,45.110569,-93.377549
McDonald's,-93.378233,"1995 Silver Bell Rd, Saint Paul, MN 55122",45.061039,45.061039,-93.378233
McDonald's,-93.101587,"7685 W Broadway Ave, Minneapolis, MN 55428",44.90203,44.90203,-93.101587
McDonald's,-93.091828,"1480 85th Ave N, Minneapolis, MN 55444",44.951331,44.951331,-93.091828
McDonald's,-93.433603,"2020 Dodd Rd, Saint Paul, MN 55120",44.957503,44.957503,-93.433603
McDonald's,-93.091828,"Saint Paul, MN 55101",44.951331,44.951331,-93.091828
McDonald's,-93.091828,"4637 Shady Oak Rd S, Hopkins, MN 55343",44.951331,44.951331,-93.091828
McDonald's,-93.38215,"1313 County Road E W, Saint Paul, MN 55112",45.007216,45.007216,-93.38215
McDonald's,-93.171974,"1168 Silver Lake Rd NW, New Brighton, MN 55112",44.91298,44.91298,-93.171974
McDonald's,-93.161754,"6320 W Lake St, Minneapolis, MN 55416",44.9539,44.9539,-93.161754
McDonald's,-93.302252,"2075 Snelling Ave N, Saint Paul, MN 55113",45.027585,45.027585,-93.302252
McDonald's,-93.197401,"5200 Excelsior Blvd, Minneapolis, MN 55416",44.96532,44.96532,-93.197401
McDonald's,-87.66,"17740 Halsted St, Homewood, IL 60430",41.56,41.56,-87.66
McDonald's,-93.29827,"2213 University Ave W, Saint Paul, MN 55114",44.9986,44.9986,-93.29827
McDonald's,-93.230213,"2929 Hennepin Ave, Minneapolis, MN 55408",44.978074,44.978074,-93.230213
McDonald's,-92.938051,"Minneapolis, MN 55401",44.830823,44.830823,-92.938051
McDonald's,-87.75,"858 Green Bay Rd, Winnetka, IL 60093",42.11,42.11,-87.75
McDonald's,-73.363339,"7355 W Point Douglas Rd S, Cottage Grove, MN 55016",42.193255,42.193255,-73.363339
McDonald's,-73.453889,"26 Sutton Ave, Oxford, MA 01540",41.392592,41.392592,-73.453889
McDonald's,-73.131906,"Berkshire Shopping Ctr, Danbury, CT 06810",41.197266,41.197266,-73.131906
McDonald's,-71.958331,"5065 Main St, Trumbull, CT 06611",42.13906,42.13906,-71.958331
McDonald's,-71.969764,"2 Coogan Blvd, Mystic, CT 06355",42.134705,42.134705,-71.969764
McDonald's,-73.101659,"94 Char, Charlton, MA 01507",41.247825,41.247825,-73.101659
McDonald's,-73.057314,"411 Barnum Avenue Stratford Sq, Stratford, CT 06614",41.225019,41.225019,-73.057314
McDonald's,-73.206135,"561 Long Hill Rd, Groton, CT 06340",41.334161,41.334161,-73.206135
McDonald's,-71.883205,"178 Federal Rd, Brookfield, CT 06804",41.844648,41.844648,-71.883205
McDonald's,-71.885004,"406 Colman St, New London, CT 06320",41.804039,41.804039,-71.885004
McDonald's,-73.089629,"95 River Rd, Lisbon, CT 06351",41.323445,41.323445,-73.089629
McDonald's,-73.089629,"3 Chesterfield Rd, East Lyme, CT 06333",41.323445,41.323445,-73.089629
McDonald's,-72.375724,"Canaan, CT 06018",41.28832,41.28832,-72.375724
McDonald's,-88.03,"2580 Golf Rd, Rolling Meadows, IL 60008",42.08,42.08,-88.03
McDonald's,-72.875951,"538 Norwich New London Tpke, Montville, CT 06353",41.277255,41.277255,-72.875951
McDonald's,-72.811269,"687 Main St, East Haven, CT 06512",41.2817,41.2817,-72.811269
McDonald's,-72.095329,"108 W Main St, Clinton, CT 06413",41.548955,41.548955,-72.095329
McDonald's,-72.901664,"Connecticut Tpke, Madison, CT 06443",41.383965,41.383965,-72.901664
McDonald's,-72.86102,"1460 Memorial Dr, Chicopee, MA 01020",41.387833,41.387833,-72.86102
McDonald's,-72.450279,"50 Holyoke St, Holyoke, MA 01040",42.12122,42.12122,-72.450279
McDonald's,-72.860661,"7 Wellfleet Dr, Ludlow, MA 01095",41.380666,41.380666,-72.860661
McDonald's,-73.119393,"182 N Elm St, Westfield, MA 01085",41.604893,41.604893,-73.119393
McDonald's,-72.562717,"352 Riverdale St, West Springfield, MA 01089",42.126282,42.126282,-72.562717
McDonald's,-73.013709,"45 Thomaston Ave, Waterbury, CT 06702",41.529805,41.529805,-73.013709
McDonald's,-72.623498,"1464 Main St, Willimantic, CT 06226",42.105568,42.105568,-72.623498
McDonald's,-72.983248,"89 W Stafford Rd, Stafford Springs, CT 06076",41.546158,41.546158,-72.983248
McDonald's,-73.034379,"530 Reidville Dr, Waterbury, CT 06705",41.57411,41.57411,-73.034379
McDonald's,-72.594139,"1858 E Main St, Torrington, CT 06790",41.999734,41.999734,-72.594139
McDonald's,-72.77157,"34 Enfield St, Enfield, CT 06082",42.053629,42.053629,-72.77157
McDonald's,-72.594139,"Taylor Rd, Enfield, CT 06082",41.999734,41.999734,-72.594139
McDonald's,-72.826369,"585 Hazard Ave, Enfield, CT 06082",41.51832,41.51832,-72.826369
McDonald's,-72.94619,"80 N Main St Bldg MCD, Bristol, CT 06010",41.674498,41.674498,-72.94619
McDonald's,-88.04,"1039 E 9th St, Lockport, IL 60441",41.59,41.59,-88.04
McDonald's,-72.649839,"321 Main St, Bristol, CT 06010",41.56266,41.56266,-72.649839
McDonald's,-72.829034,"74 Reservoir Rd, Vernon, CT 06066",41.955158,41.955158,-72.829034
McDonald's,-72.94619,"9 Bank St, Granby, CT 06035",41.674498,41.674498,-72.94619
McDonald's,-87.61,"19767 S Halsted St, Chicago Heights, IL 60411",41.51,41.51,-87.61
McDonald's,-72.651639,"Canton, CT 06019",41.59863,41.59863,-72.651639
McDonald's,-72.651639,"195 Ella T Grasso Tpke, Windsor Locks, CT 06096",41.59863,41.59863,-72.651639
McDonald's,-72.448674,"125 Berlin Rd, Cromwell, CT 06416",41.867455,41.867455,-72.448674
McDonald's,-72.887906,"89 Talcottville Rd, Vernon Rockville, CT 06066",41.758893,41.758893,-72.887906
McDonald's,-72.868253,"1799 Farmington Ave, Unionville, CT 06085",41.671118,41.671118,-72.868253
McDonald's,-72.556187,"22 Albany Tpke, Simsbury, CT 06092",41.834203,41.834203,-72.556187
McDonald's,-72.556187,"Route 5 John Fitch Blvd, South Windsor, CT 06074",41.834203,41.834203,-72.556187
McDonald's,-72.644149,"273 Cottage Grove Rd, Bloomfield, CT 06002",41.85076,41.85076,-72.644149
McDonald's,-72.694296,"76 Brainard Rd, Hartford, CT 06114",41.763209,41.763209,-72.694296
McDonald's,-72.694296,"1303 Albany Ave, Hartford, CT 06112",41.763209,41.763209,-72.694296
McDonald's,-72.674069,"172 Washington St, Hartford, CT 06106",41.763325,41.763325,-72.674069
McDonald's,-73.073981,"150 Gold Star Hwy, Groton, CT 06340",41.394897,41.394897,-73.073981
McDonald's,-72.594139,"97 Elm St, Enfield, CT 06082",41.999734,41.999734,-72.594139
McDonald's,-73.072853,"44 S Main St, Winsted, CT 06098",41.920898,41.920898,-73.072853
McDonald's,-94.301052,"119 Crown Hill Rd, Excelsior Springs, MO 64024",39.308475,39.308475,-94.301052
McDonald's,-94.497403,"71 Highway And 58 Hwy, Belton, MO 64012",38.790037,38.790037,-94.497403
McDonald's,-88.24,"188 Fox Valley Ctr, Aurora, IL 60504",41.75,41.75,-88.24
McDonald's,-94.259793,"814 State Highway 7, Blue Springs, MO 64014",39.020209,39.020209,-94.259793
McDonald's,-94.77217,"15920 W 87th Street Pkwy, Shawnee Mission, KS 66219",38.961889,38.961889,-94.77217
McDonald's,-94.682257,"Santa Fe Dr, Overland Park, KS 66212",38.957399,38.957399,-94.682257
McDonald's,-94.71507,"11005 W 75th St, Overland Park, KS 66214",38.96005,38.96005,-94.71507
McDonald's,-94.539371,"5620 E Bannister Rd # E, Kansas City, MO 64137",38.929916,38.929916,-94.539371
McDonald's,-94.523865,"290 E Us Highway 69, Kansas City, MO 64119",39.206582,39.206582,-94.523865
McDonald's,-94.666469,"6767 Johnson Dr, Mission, KS 66202",39.023777,39.023777,-94.666469
McDonald's,-94.59506,"500 Nichols Rd, Kansas City, MO 64112",39.037124,39.037124,-94.59506
McDonald's,-123.014817,"Salem, OR 97301",44.96524,44.96524,-123.014817
McDonald's,-87.81,"2748 Skokie Valley Rd, Highland Park, IL 60035",42.18,42.18,-87.81
McDonald's,-122.852504,"3002 Stacey Allison Way, Woodburn, OR 97071",45.145552,45.145552,-122.852504
McDonald's,-122.955346,"568 SE 10th Ave, Hillsboro, OR 97123",45.492067,45.492067,-122.955346
McDonald's,-122.852325,"21335 N Sherwood Blvd, Sherwood, OR 97140",45.355509,45.355509,-122.852325
McDonald's,-122.392076,"1002 Nw Frontage Rd, Troutdale, OR 97060",45.529067,45.529067,-122.392076
McDonald's,-122.572186,"2010 Clackamette Dr, Oregon City, OR 97045",45.341733,45.341733,-122.572186
McDonald's,-122.86388,"19525 SW Tualatin Valley Hwy, Aloha, OR 97006",45.51928,45.51928,-122.86388
McDonald's,-122.539659,"14600 SE Sunnyside Rd, Happy Valley, OR 97015",45.418222,45.418222,-122.539659
McDonald's,-122.780914,"12388 SW Scholls Ferry Rd, Tigard, OR 97223",45.438848,45.438848,-122.780914
McDonald's,-122.780914,"9483 SW Washington Square Rd, Portland, OR 97223",45.438848,45.438848,-122.780914
McDonald's,-122.576451,"8700 NE Vancouver Mall Dr, Vancouver, WA 98662",45.674106,45.674106,-122.576451
McDonald's,-122.578434,"1525 NE 103rd Ct, Portland, OR 98664",45.619305,45.619305,-122.578434
McDonald's,-88.24,"2595 Ogden Ave, Aurora, IL 60504",41.75,41.75,-88.24
McDonald's,-87.86,"884 S Waukegan Rd, Lake Forest, IL 60045",42.24,42.24,-87.86
McDonald's,-88.12,"1704 Plainfield Rd, Crest Hill, IL 60435",41.54,41.54,-88.12
McDonald's,-122.616019,"8151 SE Lamphier St, Portland, OR 97222",45.442725,45.442725,-122.616019
McDonald's,-122.616019,"10970 SE Oak St, Milwaukie, OR 97222",45.442725,45.442725,-122.616019
McDonald's,-122.64785,"2100 8th Ct, West Linn, OR 97068",45.366331,45.366331,-122.64785
McDonald's,-122.612606,"15114 SE McLoughlin Blvd, Milwaukie, OR 97267",45.407515,45.407515,-122.612606
McDonald's,-88.3,"1185 N Farnsworth Ave, Aurora, IL 60505",41.76,41.76,-88.3
McDonald's,-80.272809,"5741 Coral Ridge Dr, Coral Springs, FL 33076",26.30724,26.30724,-80.272809
McDonald's,-80.256431,"11655 W Sample Rd, Coral Springs, FL 33065",26.2724,26.2724,-80.256431
McDonald's,-88.12,"1515 W Jefferson St, Joliet, IL 60435",41.54,41.54,-88.12
McDonald's,-80.375734,"1020 Weston Rd, Weston, FL 33326",26.111264,26.111264,-80.375734
McDonald's,-80.367599,"4492 Weston Rd, Davie, FL 33331",26.05845,26.05845,-80.367599
McDonald's,-80.223664,"4101 SW 64th Ave, Davie, FL 33314",26.06866,26.06866,-80.223664
McDonald's,-88.3,"711 E New York St, Aurora, IL 60505",41.76,41.76,-88.3
McDonald's,-87.97,"909 Hawtllorne Shopping Ctr, Vernon Hills, IL 60061",42.23,42.23,-87.97
McDonald's,-87.86,"695 N Bradley Rd, Mettawa, IL 60045",42.24,42.24,-87.86
McDonald's,-88.26,"816 Saint Charles St, Elgin, IL 60120",42.04,42.04,-88.26
McDonald's,-88.36,"350 W Galena Blvd, Aurora, IL 60506",41.77,41.77,-88.36
McDonald's,-80.320094,"17850 NW 57th Ave, Hialeah, FL 33015",25.941662,25.941662,-80.320094
McDonald's,-87.32,"I-65, Merrillville, IN 46410",41.47,41.47,-87.32
McDonald's,-80.320094,"5851 NW 177th St, Hialeah, FL 33015",25.941662,25.941662,-80.320094
McDonald's,-87.62,"901 Dixie Hwy, Beecher, IL 60401",41.35,41.35,-87.62
McDonald's,-88.34,"2890 Us Highway 34, Oswego, IL 60543",41.69,41.69,-88.34
McDonald's,-88.3,"1915 W Main St, Saint Charles, IL 60174",41.92,41.92,-88.3
McDonald's,-87.26,"1415 E 37th Ave, Hobart, IN 46342",41.53,41.53,-87.26
McDonald's,-88.18,"4280 W Jefferson St, Joliet, IL 60431",41.54,41.54,-88.18
McDonald's,-80.332278,"5995 W 24th Ave, Hialeah, FL 33016",25.894685,25.894685,-80.332278
McDonald's,-88.18,"1421 Riverboat Center Dr, Joliet, IL 60431",41.54,41.54,-88.18
McDonald's,-80.300699,"4185 W 16th Ave, Hialeah, FL 33012",25.86541,25.86541,-80.300699
McDonald's,-80.300699,"3350 W 18th Ave, Hialeah, FL 33012",25.86541,25.86541,-80.300699
McDonald's,-88.36,"2011 W Galena Blvd, Aurora, IL 60506",41.77,41.77,-88.36
McDonald's,-80.300699,"330 W 29th St, Hialeah, FL 33012",25.86541,25.86541,-80.300699
McDonald's,-80.233285,"3280 Coral Way, Coral Gables, FL 33145",25.753621,25.753621,-80.233285
McDonald's,-87.86,"200 Building, Great Lakes, IL 60088",42.31,42.31,-87.86
McDonald's,-88.29,"386 S 8th St, West Dundee, IL 60118",42.1,42.1,-88.29
McDonald's,-70.930864,"Hathaway Rd, New Bedford, MA 02740",41.637655,41.637655,-70.930864
McDonald's,-88.26,"Route 25, Carpentersville, IL 60110",42.14,42.14,-88.26
McDonald's,-70.531959,"1 Meetinghouse Ln, Sagamore Beach, MA 02562",41.79389,41.79389,-70.531959
McDonald's,-71.969764,"94 Char, Charlton, MA 01507",42.134705,42.134705,-71.969764
McDonald's,-88.44,"2007 Bridge St, Yorkville, IL 60560",41.64,41.64,-88.44
McDonald's,-71.507499,"907 2nd St, Manchester, NH 03102",42.994395,42.994395,-71.507499
McDonald's,-71.864679,"26 Sutton Ave, Oxford, MA 01540",42.1176,42.1176,-71.864679
McDonald's,-71.869495,"Routes 12, Auburn, MA 01501",42.180468,42.180468,-71.869495
McDonald's,-71.326734,"Route 102, Derry, NH 03038",42.88059,42.88059,-71.326734
McDonald's,-71.785574,"8 Malden St Apt 14, Worcester, MA 01606",42.30964,42.30964,-71.785574
McDonald's,-71.325196,"Po Box 220, Seekonk, MA 02771",41.829792,41.829792,-71.325196
McDonald's,-71.785574,"1282 W Boylston St, Worcester, MA 01606",42.30964,42.30964,-71.785574
McDonald's,-87.8,"701 Oriole Dr, Peotone, IL 60468",41.33,41.33,-87.8
McDonald's,-71.759364,"100 Commercial Rd Unit 100, Leominster, MA 01453",42.52638,42.52638,-71.759364
McDonald's,-71.772199,"982 Grafton St, Worcester, MA 01604",42.2643,42.2643,-71.772199
McDonald's,-87.86,"1010 Waukegan Rd, Waukegan, IL 60085",42.36,42.36,-87.86
McDonald's,-71.444316,"622 George Washington Hwy, Lincoln, RI 02865",41.931973,41.931973,-71.444316
McDonald's,-71.439029,"75 Derry Ln, Hudson, NH 03051",42.76434,42.76434,-71.439029
McDonald's,-70.906864,"4 E Clark St, Middleboro, MA 02346",41.89442,41.89442,-70.906864
McDonald's,-71.439029,"Derry Rd, Hudson, NH 03051",42.76434,42.76434,-71.439029
McDonald's,-71.088779,"282 Winthrop St, Taunton, MA 02780",41.900915,41.900915,-71.088779
McDonald's,-71.329548,"226 E Washington St, North Attleboro, MA 02760",41.973584,41.973584,-71.329548
McDonald's,-71.613866,"11 Massachusetts Tpke, Westborough, MA 01581",42.268807,42.268807,-71.613866
McDonald's,-71.516544,"Milford, MA 01757",42.142995,42.142995,-71.516544
McDonald's,-88.28,"100 Ridge Rd, Minooka, IL 60447",41.47,41.47,-88.28
McDonald's,-70.66811,"50 Maplewood Ave, Gloucester, MA 01930",42.614353,42.614353,-70.66811
McDonald's,-71.329969,"378 Broadway St, Lowell, MA 01854",42.658265,42.658265,-71.329969
McDonald's,-88.44,"3 W Veterans Pkwy, Yorkville, IL 60560",41.64,41.64,-88.44
McDonald's,-71.16649,"599 Andover St, Lawrence, MA 01843",42.687021,42.687021,-71.16649
McDonald's,-71.465799,"Po Box Box, Ashland, MA 01721",42.261303,42.261303,-71.465799
McDonald's,-87.94,"Delany Rd, Gurnee, IL 60031",42.37,42.37,-87.94
McDonald's,-71.017224,"123 Market St, Brockton, MA 02301",42.082555,42.082555,-71.017224
McDonald's,-71.088839,"50 Oliver St, North Easton, MA 02356",42.074712,42.074712,-71.088839
McDonald's,-71.409633,"281 Willis Rd, Sudbury, MA 01776",42.384211,42.384211,-71.409633
McDonald's,-71.017244,"334 N Pearl St, Brockton, MA 02301",42.08317,42.08317,-71.017244
McDonald's,-70.928509,"Northshore Shopping Ctr, Peabody, MA 01960",42.52636,42.52636,-70.928509
McDonald's,-70.943775,"789 Bridge St, Weymouth, MA 02191",42.243361,42.243361,-70.943775
McDonald's,-70.957994,"60 Boston St, Lynn, MA 01904",42.484995,42.484995,-70.957994
McDonald's,-87.84,"103 Southcreek Dr, Manteno, IL 60950",41.25,41.25,-87.84
McDonald's,-88.1,"774 E Rollins Rd, Round Lake Beach, IL 60073",42.36,42.36,-88.1
McDonald's,-71.221109,"111 Needham St, Newton Upper Falls, MA 02464",42.3177,42.3177,-71.221109
McDonald's,-71.108724,"3850 Mystic Valley Pkwy, Medford, MA 02155",42.41985,42.41985,-71.108724
McDonald's,-71.084184,"3064 Washington St, Roxbury, MA 02119",42.32874,42.32874,-71.084184
McDonald's,-87.93,"39105 N Us Highway 41, Wadsworth, IL 60083",42.43,42.43,-87.93
McDonald's,-71.106019,"264 Monsignor Obrien Hwy, Cambridge, MA 02141",42.36679,42.36679,-71.106019
McDonald's,0,"1 Union Park, Boston, MA 02118",0,0,0
McDonald's,-71.056699,"605 Washington St, Boston, MA 02111",42.358635,42.358635,-71.056699
McDonald's,-88.13,"1055 S Water St, Wilmington, IL 60481",41.32,41.32,-88.13
McDonald's,-71.134416,"Boston, MA 02110",42.364112,42.364112,-71.134416
McDonald's,-71.210473,"54 Range Rd, Salem, NH 03079",42.784826,42.784826,-71.210473
McDonald's,-84.548552,"645 Cobb Pkwy S, Marietta, GA 30060",33.928803,33.928803,-84.548552
McDonald's,-84.289712,"3396 Chamblee Tucker Rd, Atlanta, GA 30341",33.888099,33.888099,-84.289712
McDonald's,-86.88,"823 Franklin St, Michigan City, IN 46360",41.71,41.71,-86.88
McDonald's,-84.318974,"4701 Ashford Dunwoody Rd, Dunwoody, GA 30338",33.942936,33.942936,-84.318974
McDonald's,-84.289712,"5493 Peachtree Industrial Blvd, Atlanta, GA 30341",33.888099,33.888099,-84.289712
McDonald's,-84.417363,"53 Jasper Hts, Jasper, GA 30143",34.46398,34.46398,-84.417363
McDonald's,-85.078284,"Carrollton, GA 30112",33.580894,33.580894,-85.078284
McDonald's,-84.757165,"Po Box, Cartersville, GA 30120",34.12862,34.12862,-84.757165
McDonald's,-84.020437,"1050 Old Peachtree Rd Ne, Lawrenceville, GA 30043",33.998108,33.998108,-84.020437
McDonald's,-84.292078,"5750 Atlanta Hwy, Alpharetta, GA 30004",34.11042,34.11042,-84.292078
McDonald's,-84.292078,"2350 Abernathy Rd, Alpharetta, GA 30004",34.11042,34.11042,-84.292078
McDonald's,-84.139909,"2101 Duluth Highway 120, Duluth, GA 30097",34.020438,34.020438,-84.139909
McDonald's,-84.038886,"3460 Centerville Ln, Snellville, GA 30039",33.804313,33.804313,-84.038886
McDonald's,-84.149218,"3210 Buford Hwy, Duluth, GA 30096",33.976204,33.976204,-84.149218
McDonald's,-84.64428,"Cobb Pkwy NW, Kennesaw, GA 30152",33.997918,33.997918,-84.64428
McDonald's,-88.22,"285 N Front St, Braidwood, IL 60408",41.27,41.27,-88.22
McDonald's,-84.469045,"860 S Highway 85, Fayetteville, GA 30214",33.47314,33.47314,-84.469045
McDonald's,-84.422586,"Hwy 92, Roswell, GA 30075",34.063325,34.063325,-84.422586
McDonald's,-84.329513,"6615 Jonesboro Rd, Morrow, GA 30260",33.585188,33.585188,-84.329513
McDonald's,-87.88,"9 Briarcliff Prof Ctr Ste A, Bourbonnais, IL 60914",41.17,41.17,-87.88
McDonald's,-84.467313,"1495 Roswell Rd, Marietta, GA 30062",34.000425,34.000425,-84.467313
McDonald's,-88.42,"Rt 47, Morris, IL 60450",41.39,41.39,-88.42
McDonald's,-84.505893,"5115 Old National Hwy, College Park, GA 30349",33.616062,33.616062,-84.505893
McDonald's,-84.548552,"1785 Cobb Pkwy S, Marietta, GA 30060",33.928803,33.928803,-84.548552
McDonald's,-84.454622,"1203 Virginia Ave, Atlanta, GA 30344",33.676162,33.676162,-84.454622
McDonald's,-73.747805,"8814 Springfield Blvd, Queens Village, NY 11427",40.729714,40.729714,-73.747805
McDonald's,-73.84269,"15940 Crossbay Blvd, Howard Beach, NY 11414",40.660637,40.660637,-73.84269
McDonald's,-84.505236,"3010 Canton Rd, Marietta, GA 30066",34.034994,34.034994,-84.505236
McDonald's,-84.389828,"35 Forsyth St, Atlanta, GA 30303",33.753987,33.753987,-84.389828
McDonald's,-84.5673,"2105 Towne Lake Pkwy, Woodstock, GA 30189",34.117758,34.117758,-84.5673
McDonald's,-84.329513,"5192 Jonesboro Rd, Morrow, GA 30260",33.585188,33.585188,-84.329513
McDonald's,-115.062581,"2217 N Green Valley Pkwy, Henderson, NV 89014",36.060034,36.060034,-115.062581
McDonald's,-74.060294,"846 N State Rt 17, Paramus, NJ 07652",40.92673,40.92673,-74.060294
McDonald's,-115.996268,"681 S. Hwy 160, Pahrump, NV 89048",36.17573,36.17573,-115.996268
McDonald's,-122.639102,"50 Mission Cir, Santa Rosa, CA 95409",38.460446,38.460446,-122.639102
McDonald's,-122.29699,"3392 Solano Ave, Napa, CA 94558",38.334514,38.334514,-122.29699
McDonald's,-122.075449,"958 San Leandro Ave Ste 600 0, Mountain View, CA 94043",37.404659,37.404659,-122.075449
McDonald's,-122.027,"3000 Newpark Mall, Newark, CA 94560",37.5364,37.5364,-122.027
McDonald's,0,"114 Delancey St, New York, NY 10002",0,0,0
McDonald's,-122.129065,"1721 E Bayshore Rd, East Palo Alto, CA 94303",37.450687,37.450687,-122.129065
McDonald's,-122.129065,"2401 University Ave, East Palo Alto, CA 94303",37.450687,37.450687,-122.129065
McDonald's,-121.957447,"2527 Camino Ramon Ste 347, San Ramon, CA 94583",37.751859,37.751859,-121.957447
McDonald's,-122.470989,"Junipero Serra Blvd, Daly City, CA 94015",37.692185,37.692185,-122.470989
McDonald's,-117.326063,"2525 el Camino Real Ste 100, Carlsbad, CA 92008",33.153468,33.153468,-117.326063
McDonald's,-116.913442,"2646 Jamacha Rd, el Cajon, CA 92019",32.778967,32.778967,-116.913442
McDonald's,-117.199931,"5065 Clairemont Dr, San Diego, CA 92117",32.823865,32.823865,-117.199931
McDonald's,-117.054264,"619 Broadway, Chula Vista, CA 91910",32.636734,32.636734,-117.054264
McDonald's,-117.054264,"555 Broadway, Chula Vista, CA 91910",32.636734,32.636734,-117.054264
McDonald's,-74.777747,"Highway 22 E, Whitehouse Station, NJ 08889",40.629459,40.629459,-74.777747
McDonald's,-74.218239,"950 Route 37 W, Toms River, NJ 08755",39.993512,39.993512,-74.218239
McDonald's,-74.700343,"944 Us Highway 202 S, Branchburg, NJ 08876",40.560897,40.560897,-74.700343
McDonald's,-75.949413,"Rte 40, North East, MD 21901",39.607982,39.607982,-75.949413
McDonald's,-75.596453,"Rt 222, Trexlertown, PA 18087",40.551001,40.551001,-75.596453
McDonald's,-75.672874,"Route 40, Newark, DE 19702",39.626915,39.626915,-75.672874
McDonald's,-75.768816,"State Road 4, Newark, DE 19713",39.660915,39.660915,-75.768816
McDonald's,-75.665325,"4625 Kirkwood Hwy, Wilmington, DE 19808",39.734792,39.734792,-75.665325
McDonald's,-75.688026,"Hockessin, DE 19707",39.779566,39.779566,-75.688026
McDonald's,-74.728999,"301 Brunswick Cir, Lawrenceville, NJ 08648",40.29833,40.29833,-74.728999
McDonald's,-75.148141,"5859 Easton Rd, Plumsteadville, PA 18947",40.394156,40.394156,-75.148141
McDonald's,-75.600119,"Route 13, New Castle, DE 19720",39.67009,39.67009,-75.600119
McDonald's,-74.571008,"102 E Main St, Wrightstown, NJ 08562",40.102164,40.102164,-74.571008
McDonald's,-75.255685,"303 Constitution Ave, Perkasie, PA 18944",40.376714,40.376714,-75.255685
McDonald's,-75.634439,"1 State St, Wilmington, DE 19804",39.712915,39.712915,-75.634439
McDonald's,-75.703563,"Scarlet Rd, Kennett Square, PA 19348",39.858488,39.858488,-75.703563
McDonald's,-74.701227,"Us Hwy No 130, Bordentown, NJ 08505",40.146203,40.146203,-74.701227
McDonald's,-75.638353,"402 Gordon Dr, Downingtown, PA 19341",40.040978,40.040978,-75.638353
McDonald's,-75.54896,"Wilmington, DE 19801",39.739072,39.739072,-75.54896
McDonald's,-75.183123,"800 Town Ctr, New Britain, PA 18901",40.30038,40.30038,-75.183123
McDonald's,-75.295058,"1511 Bethlehem Pike, Hatfield, PA 19440",40.277281,40.277281,-75.295058
McDonald's,-75.536393,"84 Lancaster Ave, Frazer, PA 19355",40.046415,40.046415,-75.536393
McDonald's,-74.750749,"1660 Route 38, Mount Holly, NJ 08060",39.997145,39.997145,-74.750749
McDonald's,-74.911848,"749 E Lincoln Hwy, Langhorne, PA 19047",40.175828,40.175828,-74.911848
McDonald's,-75.384684,"635 S Trooper Rd, Audubon, PA 19403",40.144198,40.144198,-75.384684
McDonald's,-75.111036,"N Delsea Dr, Glassboro, NJ 08028",39.707114,39.707114,-75.111036
McDonald's,-73.921019,"4506 Greenpoint Ave, Sunnyside, NY 11104",40.743467,40.743467,-73.921019
McDonald's,-75.384684,"689 W Germantown Pike, East Norriton, PA 19403",40.144198,40.144198,-75.384684
McDonald's,-75.056494,"3501 Route 42, Turnersville, NJ 08012",39.772775,39.772775,-75.056494
McDonald's,-74.917936,"W Route 70, Marlton, NJ 08053",39.89416,39.89416,-74.917936
McDonald's,-73.976274,"573 Church Ave, Brooklyn, NY 11218",40.643997,40.643997,-73.976274
McDonald's,-75.208336,"119 W Butler Ave, Ambler, PA 19002",40.174305,40.174305,-75.208336
McDonald's,-75.162389,"S Chris Columbus Blvd, Philadelphia, PA 19019",39.952152,39.952152,-75.162389
McDonald's,-75.162389,"8800 Essington Ave, Philadelphia, PA 19019",39.952152,39.952152,-75.162389
McDonald's,-75.22446,"Henry Ave, Philadelphia, PA 19128",40.042711,40.042711,-75.22446
McDonald's,-75.171019,"N Broad St, Philadelphia, PA 19132",39.996219,39.996219,-75.171019
McDonald's,-75.162389,"Christopher Columbus Blvd S, Philadelphia, PA 19019",39.952152,39.952152,-75.162389
McDonald's,-73.9325,"3136 21st St, Astoria, NY 11106",40.761997,40.761997,-73.9325
McDonald's,-73.889949,"5634 Myrtle Ave, Ridgewood, NY 11385",40.7033,40.7033,-73.889949
McDonald's,-74.957239,"4057 Route 130, Delran, NJ 08075",40.0514,40.0514,-74.957239
McDonald's,-74.929974,"1108 Route 73, Mount Laurel, NJ 08054",39.96046,39.96046,-74.929974
McDonald's,-75.307165,"800 Chester Pike, Prospect Park, PA 19076",39.885472,39.885472,-75.307165
McDonald's,-75.308538,"Havertown, PA 19083",39.977448,39.977448,-75.308538
McDonald's,-75.29747,"111 W Lancaster Ave, Ardmore, PA 19003",40.001561,40.001561,-75.29747
McDonald's,-75.162158,"2033 S Broad St, Philadelphia, PA 19148",39.914128,39.914128,-75.162158
McDonald's,-75.162389,"Suburban Station Concourse, Phila, PA 19197",39.952152,39.952152,-75.162389
McDonald's,-74.711669,"255 U S Hwy No 130, Bordentown, NJ 08505",40.14602,40.14602,-74.711669
McDonald's,-75.736879,"1188 ben Franklin Hwy W, Douglassville, PA 19518",40.278263,40.278263,-75.736879
McDonald's,-117.334539,"2242 University Ave, Riverside, CA 92507",33.975508,33.975508,-117.334539
McDonald's,-73.904227,"6935 Grand Ave, Maspeth, NY 11378",40.72404,40.72404,-73.904227
McDonald's,-117.374709,"260 E Foothill Blvd, Rialto, CA 92376",34.109,34.109,-117.374709
McDonald's,-117.54106,"4015 Phelan Rd, Phelan, CA 92371",34.455061,34.455061,-117.54106
McDonald's,-117.453578,"10143 Sierra Ave, Fontana, CA 92335",34.088529,34.088529,-117.453578
McDonald's,-117.453578,"16063 Foothill Blvd, Fontana, CA 92335",34.088529,34.088529,-117.453578
McDonald's,-73.908548,"2250 31st St, Astoria, NY 11105",40.77704,40.77704,-73.908548
McDonald's,-117.447227,"8875 Limonite Ave, Riverside, CA 92509",33.998937,33.998937,-117.447227
McDonald's,-118.562559,"27103 McBean Pkwy, Valencia, CA 91355",34.409651,34.409651,-118.562559
McDonald's,-117.930371,"700 W Coast Hwy, Newport Beach, CA 92663",33.61655,33.61655,-117.930371
McDonald's,-118.586887,"25323 Chiquella Ln, Stevenson Ranch, CA 91381",34.390254,34.390254,-118.586887
McDonald's,-117.907745,"3333 Bristol St Ste 2235, Costa Mesa, CA 92626",33.680069,33.680069,-117.907745
McDonald's,-117.907911,"3810 S Bristol St, Santa Ana, CA 92704",33.723356,33.723356,-117.907911
McDonald's,-117.907745,"3141 Harbor Blvd, Costa Mesa, CA 92626",33.680069,33.680069,-117.907745
McDonald's,-118.594976,"20932 Devonshire St, Chatsworth, CA 91311",34.256321,34.256321,-118.594976
McDonald's,-118.617691,"21901 Erwin St, Woodland Hills, CA 91367",34.176979,34.176979,-118.617691
McDonald's,-118.617691,"21300 Victory Blvd, Woodland Hills, CA 91367",34.176979,34.176979,-118.617691
McDonald's,-73.878528,"9505 57th Ave, Elmhurst, NY 11373",40.736912,40.736912,-73.878528
McDonald's,-118.501119,"11840 Balboa Blvd, Granada Hills, CA 91344",34.278051,34.278051,-118.501119
McDonald's,-118.550159,"19315 Parthenia St, Northridge, CA 91324",34.238967,34.238967,-118.550159
McDonald's,-117.790391,"1210 N Jefferson St, Anaheim, CA 92807",33.849497,33.849497,-117.790391
McDonald's,-117.854934,"1835 E Route 66, Glendora, CA 91740",34.11697,34.11697,-117.854934
McDonald's,-117.856958,"121 N Grand Ave, Covina, CA 91724",34.088501,34.088501,-117.856958
McDonald's,-118.422811,"14024 Osborne St, Arleta, CA 91331",34.255678,34.255678,-118.422811
McDonald's,-117.953061,"740 N Euclid St, Anaheim, CA 92801",33.843611,33.843611,-117.953061
McDonald's,-117.907527,"1275 N Azusa Ave, Covina, CA 91722",34.097049,34.097049,-117.907527
McDonald's,-117.962655,"1341 S Brookhurst Rd, Fullerton, CA 92833",33.87711,33.87711,-117.962655
McDonald's,-117.907527,"928 N Azusa Ave, Covina, CA 91722",34.097049,34.097049,-117.907527
McDonald's,-117.939187,"100 N Azusa Ave, West Covina, CA 91791",34.07215,34.07215,-117.939187
McDonald's,-117.962655,"1891 W Malvern Ave, Fullerton, CA 92833",33.87711,33.87711,-117.962655
McDonald's,-118.011089,"7861 Beach Blvd, Buena Park, CA 90620",33.842912,33.842912,-118.011089
McDonald's,-117.939187,"2501 S Azusa Ave, West Covina, CA 91792",34.07215,34.07215,-117.939187
McDonald's,-118.43615,"13925 Ventura Blvd, Sherman Oaks, CA 91423",34.148972,34.148972,-118.43615
McDonald's,-117.95221,"801 W Whittier Blvd, la Habra, CA 90631",33.9338,33.9338,-117.95221
McDonald's,-118.351449,"170 del Amo Fashion Sq, Torrance, CA 90503",33.837722,33.837722,-118.351449
McDonald's,-118.315322,"1728 Lomita Blvd, Lomita, CA 90717",33.793741,33.793741,-118.315322
McDonald's,-73.940854,"3540 Nostrand Ave, Brooklyn, NY 11229",40.599451,40.599451,-73.940854
McDonald's,-117.95221,"801 W Whittier Blvd, la Habra, CA 90631",33.9338,33.9338,-117.95221
McDonald's,-118.351449,"170 del Amo Fashion Sq, Torrance, CA 90503",33.837722,33.837722,-118.351449
McDonald's,-118.113189,"6741 Carson St, Lakewood, CA 90713",33.847728,33.847728,-118.113189
McDonald's,-73.923494,"65 E 161st St, Bronx, NY 10451",40.819985,40.819985,-73.923494
McDonald's,-118.47296,"2902 Pico Blvd, Santa Monica, CA 90405",34.009047,34.009047,-118.47296
McDonald's,-118.000766,"480 W Huntington Dr, Monrovia, CA 91016",34.144272,34.144272,-118.000766
McDonald's,-118.314546,"1452 W Carson St, Torrance, CA 90501",33.827008,33.827008,-118.314546
McDonald's,-118.465049,"2457 Lincoln Blvd, Venice, CA 90291",33.992368,33.992368,-118.465049
McDonald's,-117.967982,"3123 S Hacienda Blvd, Hacienda Heights, CA 91745",33.998509,33.998509,-117.967982
McDonald's,-118.011948,"15710 Leffingwell Rd, Whittier, CA 90604",33.929022,33.929022,-118.011948
McDonald's,-118.147675,"2707 Carson St, Lakewood, CA 90712",33.850345,33.850345,-118.147675
McDonald's,-118.113189,"4848 Woodruff Ave, Lakewood, CA 90713",33.847728,33.847728,-118.113189
McDonald's,-118.427199,"11300 National Blvd, Los Angeles, CA 90064",34.036088,34.036088,-118.427199
McDonald's,-118.432022,"12975 W Jefferson Blvd, Los Angeles, CA 90066",34.001928,34.001928,-118.432022
McDonald's,-118.329432,"18145 Crenshaw Blvd, Torrance, CA 90504",33.869512,33.869512,-118.329432
McDonald's,-73.844057,"1516 College Point Blvd, College Point, NY 11356",40.786076,40.786076,-73.844057
McDonald's,-118.19997,"449 Foothill Blvd, la Canada, CA 91011",34.208445,34.208445,-118.19997
McDonald's,-73.822545,"11905 Liberty Ave, South Richmond Hill, NY 11419",40.689793,40.689793,-73.822545
McDonald's,-73.825236,"4018 Main St, Flushing, NY 11354",40.768229,40.768229,-73.825236
McDonald's,-118.147675,"158 Lakewood Center Mall, Lakewood, CA 90712",33.850345,33.850345,-118.147675
McDonald's,-73.825236,"13661 Roosevelt Ave, Flushing, NY 11354",40.768229,40.768229,-73.825236
McDonald's,-118.427199,"10611 W Pico Blvd, Los Angeles, CA 90064",34.036088,34.036088,-118.427199
McDonald's,-118.351849,"15606 Hawthorne Blvd, Lawndale, CA 90260",33.887278,33.887278,-118.351849
McDonald's,-118.32448,"1701 W Olive Ave, Burbank, CA 91506",34.171543,34.171543,-118.32448
McDonald's,-118.181944,"5020 Long Beach Blvd, Long Beach, CA 90805",33.86461,33.86461,-118.181944
McDonald's,-118.181944,"5860 Cherry Ave, Long Beach, CA 90805",33.86461,33.86461,-118.181944
McDonald's,-73.825236,"14401 Northern Blvd, Flushing, NY 11354",40.768229,40.768229,-73.825236
McDonald's,-118.398153,"4835 Sepulveda Blvd, Culver City, CA 90230",33.995662,33.995662,-118.398153
McDonald's,-118.014894,"11612 Valley Blvd, el Monte, CA 91732",34.071321,34.071321,-118.014894
McDonald's,-118.033274,"8840 Painter Ave, Whittier, CA 90602",33.967419,33.967419,-118.033274
McDonald's,-73.809478,"8784 Sutphin Blvd, Jamaica, NY 11435",40.700828,40.700828,-73.809478
McDonald's,-118.297212,"1419 W Redondo Beach Blvd, Gardena, CA 90247",33.892178,33.892178,-118.297212
McDonald's,-118.044184,"1185 Durfee Ave, South El Monte, CA 91733",34.04568,34.04568,-118.044184
McDonald's,-118.357633,"401 W Manchester Blvd, Inglewood, CA 90301",33.956566,33.956566,-118.357633
McDonald's,-118.32849,"2900 W Imperial Hwy, Inglewood, CA 90303",33.935935,33.935935,-118.32849
McDonald's,-118.241612,"1326 E Colorado St, Glendale, CA 91205",34.136573,34.136573,-118.241612
McDonald's,-73.809478,"9067 Sutphin Blvd, Jamaica, NY 11435",40.700828,40.700828,-73.809478
McDonald's,-118.085027,"720 San Gabriel Blvd, Rosemead, CA 91770",34.063792,34.063792,-118.085027
McDonald's,-118.339099,"3650 W Martin Luther King Jr Blvd # BI, Los Angeles, CA 90008",34.01,34.01,-118.339099
McDonald's,-118.085027,"7503 Garvey Ave, Rosemead, CA 91770",34.063792,34.063792,-118.085027
McDonald's,-118.205774,"3309 Tweedy Blvd, South Gate, CA 90280",33.956305,33.956305,-118.205774
McDonald's,-73.825236,"15514 Roosevelt Ave, Flushing, NY 11354",40.768229,40.768229,-73.825236
McDonald's,-118.152899,"6350 E Washington Blvd, Commerce, CA 90040",33.99718,33.99718,-118.152899
McDonald's,-118.14186,"950 W Floral Dr, Monterey Park, CA 91754",34.049196,34.049196,-118.14186
McDonald's,-118.264036,"811 W 7th St Apt W, Los Angeles, CA 90017",34.052797,34.052797,-118.264036
McDonald's,-117.639387,"27612 Antonio Pkwy, Ladera Ranch, CA 92694",33.54877,33.54877,-117.639387
McDonald's,-117.459758,"10141 Magnolia Ave, Riverside, CA 92503",33.908683,33.908683,-117.459758
McDonald's,-118.445319,"11920 Wilshire Blvd, West Los Angeles, CA 90025",34.046465,34.046465,-118.445319
McDonald's,-118.011089,"7050 Knott Ave, Buena Park, CA 90620",33.842912,33.842912,-118.011089
McDonald's,-118.473527,"2712 Santa Monica Blvd, Santa Monica, CA 90404",34.026462,34.026462,-118.473527
McDonald's,-94.977726,"2300 Gulf Fwy, La Marque, TX 77568",29.368316,29.368316,-94.977726
McDonald's,-94.954023,"441 W Southline St, Cleveland, TX 77327",30.357175,30.357175,-94.954023
McDonald's,-95.092118,"113 N Interstate 45, League City, TX 77573",29.504473,29.504473,-95.092118
McDonald's,-95.739637,"2006 Thompson Rd, Richmond, TX 77469",29.614224,29.614224,-95.739637
McDonald's,-95.549074,"6730 Woodlands Pkwy, Spring, TX 77382",30.198685,30.198685,-95.549074
McDonald's,-95.357577,"2607 Broadway St, Pearland, TX 77584",29.551587,29.551587,-95.357577
McDonald's,-95.268017,"3117 S Main St, Pearland, TX 77581",29.560948,29.560948,-95.268017
McDonald's,-95.146066,"5200 Fairmont Pkwy, Pasadena, TX 77505",29.649565,29.649565,-95.146066
McDonald's,-73.810619,"16011 Willets Point Blvd, Whitestone, NY 11357",40.785194,40.785194,-73.810619
McDonald's,-95.176455,"6626 Fm 1960 Rd E, Humble, TX 77346",29.996106,29.996106,-95.176455
McDonald's,-95.288699,"3203 Fm 1960 Rd E, Humble, TX 77338",30.009245,30.009245,-95.288699
McDonald's,-95.542359,"5501 Highway 6, Missouri City, TX 77459",29.547728,29.547728,-95.542359
McDonald's,-95.592329,"22610 State Highway 249, Tomball, TX 77375",30.085874,30.085874,-95.592329
McDonald's,-95.574944,"21189 State Highway 249, Houston, TX 77070",29.977064,29.977064,-95.574944
McDonald's,-73.781678,"20006 Cross Island Pkwy, Bayside, NY 11360",40.780724,40.780724,-73.781678
McDonald's,-73.839943,"1325 Hutchinson River Pkwy, Bronx, NY 10461",40.845932,40.845932,-73.839943
McDonald's,-74.146928,"2795 Richmond Ave, Staten Island, NY 10314",40.603231,40.603231,-74.146928
McDonald's,-73.776928,"16605 Rockaway Blvd, Jamaica, NY 11434",40.674763,40.674763,-73.776928
McDonald's,-73.737022,"J F K Airport, Jamaica, NY 11411",40.694321,40.694321,-73.737022
McDonald's,-73.737022,"166 Baisley Blvd 07, Jamaica, NY 11411",40.694321,40.694321,-73.737022
McDonald's,-73.774343,"4127 Bell Blvd, Bayside, NY 11361",40.763403,40.763403,-73.774343
McDonald's,-95.745704,"22140 Westheimer Pkwy, Katy, TX 77450",29.748946,29.748946,-95.745704
McDonald's,-104.910974,"450 S Highway 105, Palmer Lake, CO 80133",39.11684,39.11684,-104.910974
McDonald's,-105.60001,"Po Box 1530, Idaho Springs, CO 80452",39.745068,39.745068,-105.60001
McDonald's,-105.041363,"3650 State Highway 52, Longmont, CO 80516",40.037325,40.037325,-105.041363
McDonald's,-73.760264,"22128 Horace Harding Expy, Oakland Gardens, NY 11364",40.746854,40.746854,-73.760264
McDonald's,-105.149935,"Louisville, CO 80027",39.962804,39.962804,-105.149935
McDonald's,-105.047409,"1250 E 1st Ave, Broomfield, CO 80020",39.937512,39.937512,-105.047409
McDonald's,-74.082609,"Saddle Brook Mall, Saddle Brook, NJ 07663",40.895475,40.895475,-74.082609
McDonald's,-74.268514,"Union, NJ 07083",40.696105,40.696105,-74.268514
McDonald's,-74.268514,"Union Vaus Hall Rd, Union, NJ 07083",40.696105,40.696105,-74.268514
McDonald's,-105.101464,"9825 W 58th Ave, Arvada, CO 80002",39.795746,39.795746,-105.101464
McDonald's,-105.101464,"Arvada, CO 80002",39.795746,39.795746,-105.101464
McDonald's,-105.064774,"6590 Wadsworth Blvd, Arvada, CO 80003",39.82616,39.82616,-105.064774
McDonald's,-105.004343,"3601 S Federal Blvd, Englewood, CO 80110",39.645822,39.645822,-105.004343
McDonald's,-73.73233,"25001 Northern Blvd, Little Neck, NY 11362",40.761353,40.761353,-73.73233
McDonald's,-104.879034,"10555 E Briarwood Cir, Centennial, CO 80112",39.578837,39.578837,-104.879034
McDonald's,-73.846924,"4174 White Plains Rd, Bronx, NY 10466",40.890974,40.890974,-73.846924
McDonald's,-105.008549,"9190 Federal Blvd, Federal Heights, CO 80260",39.868151,39.868151,-105.008549
McDonald's,-104.959467,"10195 Washington St, Thornton, CO 80229",39.863041,39.863041,-104.959467
McDonald's,-104.885394,"5251 Dtc Pkwy, Greenwood Village, CO 80111",39.61254,39.61254,-104.885394
McDonald's,-104.950978,"3690 E 104th Ave, Thornton, CO 80233",39.89955,39.89955,-104.950978
McDonald's,-104.969809,"1300 E 21st Ave, Denver, CO 80205",39.760132,39.760132,-104.969809
McDonald's,-104.838014,"12900 E Mississippi Ave, Aurora, CO 80012",39.698099,39.698099,-104.838014
McDonald's,-74.274219,"2024 Us Highway 1, Rahway, NJ 07065",40.605275,40.605275,-74.274219
McDonald's,-97.216634,"6401 NE Loop 820 Ste 9740 0, North Richland Hills, TX 76180",32.860447,32.860447,-97.216634
McDonald's,-97.163879,"5700 Forest Bend Dr # 817, Arlington, TX 76017",32.66114,32.66114,-97.163879
McDonald's,-97.216634,"7451 Davis Blvd, North Richland Hills, TX 76180",32.860447,32.860447,-97.216634
McDonald's,-97.028163,"8300 S Stemmons Fwy, Hickory Creek, TX 75065",33.12117,33.12117,-97.028163
McDonald's,-97.147038,"101 E Northwest Pkwy, Grapevine, TX 76092",32.944259,32.944259,-97.147038
McDonald's,-97.163879,"4801 S Cooper St, Arlington, TX 76017",32.66114,32.66114,-97.163879
McDonald's,-96.94967,"200 E F M Rd 1382, Cedar Hill, TX 75104",32.58857,32.58857,-96.94967
McDonald's,-97.004609,"2422 W Pioneer Pkwy, Grand Prairie, TX 75051",32.7288,32.7288,-97.004609
McDonald's,-96.984059,"S Denton Tap Rd, Coppell, TX 75019",32.968725,32.968725,-96.984059
McDonald's,-97.013649,"2810 NE Green Oaks Blvd, Grand Prairie, TX 75050",32.766222,32.766222,-97.013649
McDonald's,-96.906651,"259 N I 35 E Sr, Duncanville, TX 75116",32.646001,32.646001,-96.906651
McDonald's,-96.806618,"W Parker Rd, Plano, TX 75093",33.036556,33.036556,-96.806618
McDonald's,-96.956246,"2410 N Story Rd, Irving, TX 75062",32.845644,32.845644,-96.956246
McDonald's,-96.881174,"2899 Valley View Ln, Dallas, TX 75234",32.926827,32.926827,-96.881174
McDonald's,-96.89072,"806 S Cockrell Hill Rd, Dallas, TX 75211",32.73596,32.73596,-96.89072
McDonald's,-96.569734,"3505 Highway 66, Rowlett, TX 75030",32.90101,32.90101,-96.569734
McDonald's,-96.835394,"13950 Midway Rd, Dallas, TX 75244",32.92385,32.92385,-96.835394
McDonald's,-96.742579,"300 N Coit Rd Ste 105, Richardson, TX 75080",32.974872,32.974872,-96.742579
McDonald's,-96.789519,"13350 Dallas Pkwy Ste 1415, Dallas, TX 75240",32.93305,32.93305,-96.789519
McDonald's,-111.998407,"1838 W 2700 N, Farr West, UT 84404",41.271876,41.271876,-111.998407
McDonald's,-73.653504,"380 Hempstead Tpke, West Hempstead, NY 11552",40.694445,40.694445,-73.653504
McDonald's,-96.676058,"1404 W Walnut St, Garland, TX 75042",32.91737,32.91737,-96.676058
McDonald's,-73.880922,"1200 Nepperhan Ave, Yonkers, NY 10703",40.957342,40.957342,-73.880922
McDonald's,-96.893088,"1050 W Frankford Rd, Carrollton, TX 75007",33.005536,33.005536,-96.893088
McDonald's,-96.610688,"102 Us Highway 80 E, Mesquite, TX 75149",32.766976,32.766976,-96.610688
McDonald's,-76.639795,"11310 York Rd, Hunt Valley, MD 21030",39.478342,39.478342,-76.639795
McDonald's,-76.484583,"9106 Belair Rd, Baltimore, MD 21236",39.38733,39.38733,-76.484583
McDonald's,-76.416932,"3423 Eastern Blvd, Middle River, MD 21220",39.340329,39.340329,-76.416932
McDonald's,-73.637625,"35 Atlantic Ave, Oceanside, NY 11572",40.637241,40.637241,-73.637625
McDonald's,-76.484583,"5302 Campbell Blvd, Nottingham, MD 21236",39.38733,39.38733,-76.484583
McDonald's,-76.484583,"8118 Perry Hills Ct, Nottingham, MD 21236",39.38733,39.38733,-76.484583
McDonald's,-76.484583,"7927 Belair Rd, Nottingham, MD 21236",39.38733,39.38733,-76.484583
McDonald's,-76.583657,"1619 E Joppa Rd, Towson, MD 21286",39.400995,39.400995,-76.583657
McDonald's,-77.726132,"Rte 7, Purcellville, VA 20132",39.14494,39.14494,-77.726132
McDonald's,-76.810706,"12012 Reisterstown Rd, Glyndon, MD 21136",39.464448,39.464448,-76.810706
McDonald's,-76.506199,"3954 N Point Rd, Baltimore, MD 21222",39.264831,39.264831,-76.506199
McDonald's,-76.497451,"717 N North Point Rd, Rosedale, MD 21237",39.338785,39.338785,-76.497451
McDonald's,-76.506199,"7734 Wise Ave, Dundalk, MD 21222",39.264831,39.264831,-76.506199
McDonald's,-77.289281,"11700 Morning Glory Pl, New Market, MD 21774",39.405229,39.405229,-77.289281
McDonald's,-76.728892,"502 Reisterstown Rd, Baltimore, MD 21208",39.38045,39.38045,-76.728892
McDonald's,-73.640789,"637 Stewart Ave, Garden City, NY 11530",40.726685,40.726685,-73.640789
McDonald's,-76.962835,"1722 Liberty Rd, Sykesville, MD 21784",39.401108,39.401108,-76.962835
McDonald's,-76.798418,"9500 Liberty Rd, Randallstown, MD 21133",39.375083,39.375083,-76.798418
McDonald's,-76.718963,"6005 Liberty Rd, Gwynn Oak, MD 21207",39.323579,39.323579,-76.718963
McDonald's,-74.397343,"1967 Us Highway 22, Scotch Plains, NJ 07076",40.650091,40.650091,-74.397343
McDonald's,-76.589281,"Rt 2, Prince Frederick, MD 20678",38.54072,38.54072,-76.589281
McDonald's,-76.718963,"6502 Security Blvd, Woodlawn, MD 21207",39.323579,39.323579,-76.718963
McDonald's,-76.688798,"1472 Martin Dr, Baltimore, MD 21229",39.283675,39.283675,-76.688798
McDonald's,-77.348971,"3500 Russell Rd # A, Quantico, VA 22134",38.53151,38.53151,-77.348971
McDonald's,-76.507849,"Fort Smallwood Rd, Riviera Beach, MD 21122",39.135052,39.135052,-76.507849
McDonald's,-74.202403,"State Highway 35, Keyport, NJ 07735",40.424656,40.424656,-74.202403
McDonald's,-73.574414,"1504 Old Country Rd Ste 227, Westbury, NY 11590",40.756569,40.756569,-73.574414
McDonald's,-76.864646,"9303 Baltimore National Pike, Ellicott City, MD 21042",39.273392,39.273392,-76.864646
McDonald's,-77.516788,"8301 Sudley Rd, Manassas, VA 20109",38.786099,38.786099,-77.516788
McDonald's,-77.402047,"19630 Fisher Ave, Poolesville, MD 20837",39.131217,39.131217,-77.402047
McDonald's,-76.539247,"113 Miechells Chance Rd, Edgewater, MD 21037",38.921484,38.921484,-76.539247
McDonald's,-77.349161,"4245 Dale Blvd, Woodbridge, VA 22193",38.644162,38.644162,-77.349161
McDonald's,-77.433992,"Sterling, VA 20166",38.996047,38.996047,-77.433992
McDonald's,-77.266455,"Lake Ridge Dr, Woodbridge, VA 22191",38.632617,38.632617,-77.266455
McDonald's,-77.266455,"Prince Williams Cmn, Woodbridge, VA 22191",38.632617,38.632617,-77.266455
McDonald's,-77.406652,"12301 Leesburg Pike, Sterling, VA 20163",39.032957,39.032957,-77.406652
McDonald's,-74.419868,"United States Highway 22, North Plainfield, NJ 07060",40.639,40.639,-74.419868
McDonald's,-77.194155,"9102 Rothbury Dr, Montgomery Village, MD 20886",39.180696,39.180696,-77.194155
McDonald's,-77.194155,"19388 Montgomery Village Ave, Montgomery Village, MD 20886",39.180696,39.180696,-77.194155
McDonald's,-76.497451,"6315 Kenwood Ave, Rosedale, MD 21237",39.338785,39.338785,-76.497451
McDonald's,-76.697504,"Route 3, Crofton, MD 21114",39.011645,39.011645,-76.697504
McDonald's,-77.27962,"5651 Burke Centre Pkwy, Burke, VA 22015",38.789206,38.789206,-77.27962
McDonald's,-74.289459,"500 State Route 23, Pompton Lakes, NJ 07442",41.003115,41.003115,-74.289459
McDonald's,-74.39357,"1075 Us Highway 1, Edison, NJ 08817",40.526798,40.526798,-74.39357
McDonald's,-76.80717,"3382 Fort Meade Rd, Laurel, MD 20724",39.103085,39.103085,-76.80717
McDonald's,-77.147126,"16701 Crabbs Branch Way, Rockville, MD 20855",39.133235,39.133235,-77.147126
McDonald's,-76.851827,"10585 Greenbelt Rd, Seabrook, MD 20706",38.96407,38.96407,-76.851827
McDonald's,-73.777608,"407 Central Ave, White Plains, NY 10606",41.024886,41.024886,-73.777608
McDonald's,-76.613518,"Ritchie Hwy, Brooklyn Park, MD 21225",39.227958,39.227958,-76.613518
McDonald's,-76.899495,"8905 Stuart Ln, Clinton, MD 20735",38.75731,38.75731,-76.899495
McDonald's,-77.207445,"5506 Backlick Rd, Springfield, VA 22151",38.804845,38.804845,-77.207445
McDonald's,-77.102226,"7600 Wisconsin Ave, Bethesda, MD 20814",39.001518,39.001518,-77.102226
McDonald's,-76.877779,"7708 Landover Rd, Landover, MD 20785",38.914969,38.914969,-76.877779
McDonald's,-76.995486,"180 Mall Cir Dr, Oxon Hill, MD 20750",38.802463,38.802463,-76.995486
McDonald's,-77.114979,"4238 Wilson Blvd, Arlington, VA 22203",38.874593,38.874593,-77.114979
McDonald's,-77.041159,"1200 17th St NW Ste 603, Washington, DC 20036",38.907077,38.907077,-77.041159
McDonald's,-77.471101,"Manassas Dr, Manassas, VA 20108",38.751061,38.751061,-77.471101
McDonald's,-122.562591,"505 W Yelm Ave, Yelm, WA 98597",46.90706,46.90706,-122.562591
McDonald's,-122.507291,"10417 S Tacoma Way, Lakewood, WA 98499",47.168104,47.168104,-122.507291
McDonald's,-122.228598,"Po Box, Sumner, WA 98390",47.248466,47.248466,-122.228598
McDonald's,-74.01255,"Rockland Ctr, Nanuet, NY 10954",41.10168,41.10168,-74.01255
McDonald's,-122.507291,"7413 Custer Rd W, Lakewood, WA 98499",47.168104,47.168104,-122.507291
McDonald's,-122.24764,"7234 NE Bothell Way, Bothell, WA 98028",47.75736,47.75736,-122.24764
McDonald's,-122.198921,"13636 100th Ave Ne, Kirkland, WA 98034",47.717436,47.717436,-122.198921
McDonald's,-122.203763,"169 Bellevue Sq, Bellevue, WA 98004",47.619146,47.619146,-122.203763
McDonald's,-122.400251,"2580 W Bertona St, Seattle, WA 98199",47.64848,47.64848,-122.400251
McDonald's,-122.120513,"17431 SE 272nd St, Covington, WA 98042",47.365431,47.365431,-122.120513
McDonald's,-74.443809,"97 Us Highway 1, New Brunswick, NJ 08901",40.49477,40.49477,-74.443809
McDonald's,-122.350826,"1737 51st Ave E, Fife, WA 98424",47.236335,47.236335,-122.350826
McDonald's,-73.251214,"267 Round Hill Rd, Fairfield, CT 06824",41.14187,41.14187,-73.251214
McDonald's,-73.358521,"701 Post Rd E, Westport, CT 06880",41.141467,41.141467,-73.358521
McDonald's,-74.828785,"Mountain Ave, Hackettstown, NJ 07840",40.853475,40.853475,-74.828785
McDonald's,-73.853429,"Mohegan Lake, NY 10547",41.31532,41.31532,-73.853429
McDonald's,-74.777747,"Highway 22 E, Whitehouse Station, NJ 08889",40.629459,40.629459,-74.777747
McDonald's,-74.118753,"55 Route 59, Suffern, NY 10901",41.125113,41.125113,-74.118753
McDonald's,-73.993369,"229 Broadway, Long Branch, NJ 07740",40.30376,40.30376,-73.993369
McDonald's,-74.052519,"State Route 35, Eatontown, NJ 07724",40.293834,40.293834,-74.052519
McDonald's,-74.046938,"2428 State Hwy No 35, Manasquan, NJ 08736",40.123613,40.123613,-74.046938
McDonald's,-74.721399,"Us Hwy No 206, Budd Lake, NJ 07828",40.908705,40.908705,-74.721399
McDonald's,-74.591547,"260 State Rt 23, Franklin, NJ 07416",41.116716,41.116716,-74.591547
McDonald's,-74.230729,"3410 U S Highway No 9, Howell, NJ 07731",40.154665,40.154665,-74.230729
McDonald's,-74.230729,"4900 U S Hwy No 9 S, Howell, NJ 07731",40.154665,40.154665,-74.230729
McDonald's,-74.700343,"944 Us Highway 202 S, Branchburg, NJ 08876",40.560897,40.560897,-74.700343
McDonald's,-74.658885,"175 Lakeside Blvd, Hopatcong, NJ 07843",40.938495,40.938495,-74.658885
McDonald's,-73.504385,"Conn Tnpk I-95 W, Darien, CT 06820",41.067072,41.067072,-73.504385
McDonald's,-73.462393,"5500 Sunrise Hwy, Massapequa, NY 11758",40.681202,40.681202,-73.462393
McDonald's,-73.327318,"18 Woodbine Ave, Northport, NY 11768",40.904146,40.904146,-73.327318
McDonald's,-74.550334,"Rockaway Town Square Mall, Rockaway, NJ 07866",40.90585,40.90585,-74.550334
McDonald's,-73.374795,"805 S Bay St, Lindenhurst, NY 11757",40.690565,40.690565,-73.374795
McDonald's,-73.846673,"214 S Highland Ave, Ossining, NY 10562",41.176934,41.176934,-73.846673
McDonald's,-74.013009,"1501 Main St, Asbury Park, NJ 07712",40.21703,40.21703,-74.013009
McDonald's,-74.644074,"40 Us Highway No 202, Bedminster, NJ 07921",40.681715,40.681715,-74.644074
McDonald's,-74.548418,"State Hwy No 15, Oak Ridge, NJ 07438",41.01932,41.01932,-74.548418
McDonald's,-74.586359,"100 N Main St, Manville, NJ 08835",40.54825,40.54825,-74.586359
McDonald's,-74.586359,"200 N Main St, Manville, NJ 08835",40.54825,40.54825,-74.586359
McDonalds,-80.796094,"1807 State Rd # 563N, Ashtabula, OH 44004",41.871277,41.871277,-80.796094
McDonalds,-73.374195,"160 Walt Whitman Rd, Huntington Station, NY 11746",40.819623,40.819623,-73.374195
McDonalds,-73.579518,"1207 E Putnam Ave, Riverside, CT 06878",41.0416,41.0416,-73.579518
McDonalds,-73.374795,"221 Sunrise Hwy, Lindenhurst, NY 11757",40.690565,40.690565,-73.374795
McDonalds,-74.015989,"2000 State Route 35, Oakhurst, NJ 07755",40.27149,40.27149,-74.015989
McDonalds,-73.969397,"254 Route 9w, Haverstraw, NY 10927",41.195854,41.195854,-73.969397
McDonalds,-74.619389,"142 Veterans Memorial Dr W, Somerville, NJ 08876",40.570705,40.570705,-74.619389
McDonalds,-74.248751,"Us Highway 9, Marlboro, NJ 07746",40.313963,40.313963,-74.248751
McDonalds,-74.625104,"680 Promenade Blvd, Bridgewater, NJ 08807",40.592881,40.592881,-74.625104
McDonalds,-74.006255,"33 Cavalry Dr, New City, NY 10956",41.190118,41.190118,-74.006255
McDonalds,-73.365138,"1585 Straight Path, Wyandanch, NY 11798",40.752747,40.752747,-73.365138
McDonalds,-73.542244,"25 Bedford St, Stamford, CT 06901",41.051645,41.051645,-73.542244
McDonalds,-73.412477,"Walt Whitman Rd, Huntington Station, NY 11747",40.817064,40.817064,-73.412477
McDonalds,-74.030404,"3542 State Route 66, Neptune, NJ 07753",40.19778,40.19778,-74.030404
McDonalds,-74.486077,"5734 Berkshire Valley Rd, Oak Ridge, NJ 07438",41.045611,41.045611,-74.486077
McDonalds,-74.027097,"9 State Route 35 N, Neptune, NJ 07753",40.207731,40.207731,-74.027097
McDonalds,-74.510153,"Us Hwy No 1, Dayton, NJ 08810",40.374699,40.374699,-74.510153
McDonalds,-74.642499,"275 State Route 10 E, Succasunna, NJ 07876",40.866064,40.866064,-74.642499
McDonalds,-73.32737,"1510 Deer Park Ave, Deer Park, NY 11729",40.762399,40.762399,-73.32737
McDonalds,-74.656752,"Ledgewood, NJ 07852",40.882187,40.882187,-74.656752
McDonalds,-73.32359,"1255 Deer Park Ave, North Babylon, NY 11703",40.734113,40.734113,-73.32359
McDonalds,-74.653114,"410 Us Highway 206, Hillsborough, NJ 08844",40.48255,40.48255,-74.653114
McDonalds,-73.318814,"1999 Jericho Tpke, East Northport, NY 11731",40.865082,40.865082,-73.318814
McDonalds,-73.415527,"900 Broadway, Amityville, NY 11701",40.687271,40.687271,-73.415527
McDonalds,-73.298656,"131 Sunrise Hwy, West Islip, NY 11795",40.711208,40.711208,-73.298656
McDonalds,-73.410589,"344 W Jericho Tpke, Huntington, NY 11743",40.867637,40.867637,-73.410589
McDonalds,-73.298656,"506 Union Blvd, West Islip, NY 11795",40.711208,40.711208,-73.298656
McDonalds,-73.462393,"260 Sunrise Mall, Massapequa, NY 11758",40.681202,40.681202,-73.462393
McDonalds,-74.024339,"505 18th Ave, Belmar, NJ 07719",40.18289,40.18289,-74.024339
McDonalds,-74.696008,"Us Hwy No 206, Flanders, NJ 07836",40.882177,40.882177,-74.696008
McDonalds,-73.282379,"2 Vanderbilt Motor Pkwy, Commack, NY 11725",40.839898,40.839898,-73.282379
McDonalds,-74.024339,"1831 State Route 35, Wall Township, NJ 07719",40.18289,40.18289,-74.024339
McDonalds,-74.016035,"372 Monmouth Rd, West Long Branch, NJ 07764",40.290667,40.290667,-74.016035
McDonalds,-73.916269,"20 Welcher Ave, Peekskill, NY 10566",41.288624,41.288624,-73.916269
McDonalds,-74.698892,"30 International Dr S, Flanders, NJ 07836",40.846918,40.846918,-74.698892
McDonalds,-73.409224,"726 Connecticut Ave, Norwalk, CT 06854",41.0814,41.0814,-73.409224
McDonalds,-74.595849,"Plainsboro Town Ctr, Plainsboro, NJ 08536",40.33405,40.33405,-74.595849
McDonalds,-73.248274,"1701 Sunrise Hwy, Bay Shore, NY 11706",40.723807,40.723807,-73.248274
McDonalds,-73.244284,"762 Suffolk Ave, Brentwood, NY 11717",40.784,40.784,-73.244284
McDonalds,-73.436987,"655 Fulton St, Farmingdale, NY 11735",40.726099,40.726099,-73.436987
McDonalds,-74.511513,"201 Us Highway 46, Rockaway, NJ 07866",40.900116,40.900116,-74.511513
McDonalds,-73.205353,"1033 W Jericho Tpke, Smithtown, NY 11787",40.851457,40.851457,-73.205353
McDonalds,-74.443809,"666 Somerset St, New Brunswick, NJ 08901",40.49477,40.49477,-74.443809
McDonalds,-73.891033,"3481 Crompond Rd, Cortlandt Manor, NY 10567",41.293466,41.293466,-73.891033
McDonalds,-73.868269,"1865 Bruckner Blvd, Bronx, NY 10472",40.829758,40.829758,-73.868269
McDonalds,-73.629619,"268 W Putnam Ave, Greenwich, CT 06830",41.02525,41.02525,-73.629619
McDonalds,-74.524099,"1065 Easton Ave, Somerset, NJ 08873",40.497508,40.497508,-74.524099
McDonalds,-73.446074,"24 Belden Ave, Norwalk, CT 06850",41.1522,41.1522,-73.446074
McDonalds,-74.404224,"730 State Route 18, East Brunswick, NJ 08816",40.42873,40.42873,-74.404224
McDonalds,-74.147482,"6 Commerce Dr S, Harriman, NY 10926",41.305831,41.305831,-74.147482
McDonalds,-74.122847,"501 Food Ct, Central Valley, NY 10917",41.327224,41.327224,-74.122847
McDonalds,-73.407654,"340 Main Ave, Norwalk, CT 06851",41.11366,41.11366,-73.407654
McDonalds,-73.200815,"13 W Suffolk Ave, Central Islip, NY 11722",40.784551,40.784551,-73.200815
McDonalds,-73.200815,"1850 Veterans Memorial Hwy, Central Islip, NY 11722",40.784551,40.784551,-73.200815
McDonalds,-74.157778,"150 State Rt 17, Mahwah, NJ 07430",41.085015,41.085015,-74.157778
McDonalds,-74.348238,"260 N County Line Rd, Jackson, NJ 08527",40.111587,40.111587,-74.348238
McDonalds,-74.191601,"501 State Route 17m, Monroe, NY 10950",41.324982,41.324982,-74.191601
McDonalds,-73.205869,"517 Route 111, Hauppauge, NY 11788",40.819676,40.819676,-73.205869
McDonalds,-74.230729,"6771 Us Highway 9, Howell, NJ 07731",40.154665,40.154665,-74.230729
McDonalds,-73.407654,"531 Westport Ave, Norwalk, CT 06851",41.11366,41.11366,-73.407654
McDonalds,-74.191896,"State Route 17m, Monroe, NY 10950",41.329834,41.329834,-74.191896
McDonalds,-74.042394,"State Route 35, Point Pleasant Beach, NJ 08742",40.07529,40.07529,-74.042394
McDonalds,-74.303755,"Us Hwy No 9 N, Old Bridge, NJ 08857",40.426834,40.426834,-74.303755
McDonalds,-74.104139,"1872 Route 88, Brick, NJ 08724",40.0774,40.0774,-74.104139
McDonalds,-73.996247,"W Point Hwy, Highland Falls, NY 10928",41.34251,41.34251,-73.996247
McDonalds,-74.213584,"Lakewood, NJ 08701",40.09325,40.09325,-74.213584
McDonalds,-73.477511,"818 Old Country Rd, Plainview, NY 11803",40.779163,40.779163,-73.477511
McDonalds,-73.161594,"614 Middle Country Rd, Saint James, NY 11780",40.882722,40.882722,-73.161594
McDonalds,-74.753195,"13 Hampton House Rd, Newton, NJ 07860",41.058566,41.058566,-74.753195
McDonalds,-73.996247,"104 W Point Hwy, Highland Falls, NY 10928",41.34251,41.34251,-73.996247
McDonalds,-74.731704,"213 Quaker Bridge Mall, Trenton, NJ 08648",40.28236,40.28236,-74.731704
McDonalds,-73.129906,"4498 Sunrise Hwy, Oakdale, NY 11769",40.738207,40.738207,-73.129906
McDonalds,-74.261023,"Chester, NY 10918",41.353728,41.353728,-74.261023
McDonalds,-74.861029,"74 Reaville Ave, Flemington, NJ 08822",40.5103,40.5103,-74.861029
McDonalds,-73.111608,"3850 Veterans Memorial Hwy, Bohemia, NY 11716",40.769579,40.769579,-73.111608
McDonalds,-73.737955,"Route 6, Mahopac, NY 10541",41.370388,41.370388,-73.737955
McDonalds,-73.661793,"Main, Croton Falls, NY 10519",41.349937,41.349937,-73.661793
McDonalds,-73.115124,"174 Portion Rd, Ronkonkoma, NY 11779",40.817715,40.817715,-73.115124
McDonalds,-73.125609,"2324 Nesconset Hwy, Stony Brook, NY 11790",40.904948,40.904948,-73.125609
McDonalds,-73.082452,"1724 Middle Country Rd, Centereach, NY 11720",40.871647,40.871647,-73.082452
McDonalds,-74.620068,"855 Marketplace Blvd, Trenton, NJ 08691",40.216054,40.216054,-74.620068
McDonalds,-74.682434,"State Highway 33, Mercerville, NJ 08619",40.232305,40.232305,-74.682434
McDonalds,-73.748038,"987 Route 6, Mahopac, NY 10541",41.369579,41.369579,-73.748038
McDonalds,-73.251214,"165 Round Hill Rd, Fairfield, CT 06824",41.14187,41.14187,-73.251214
McDonalds,-74.414104,"1 Penn Plz, New Brunswick, NJ 08901",40.489404,40.489404,-74.414104
McDonalds,-73.103635,"3990 Nesconset Hwy, East Setauket, NY 11733",40.929525,40.929525,-73.103635
McDonalds,-73.082452,"161 Centereach Mall, Centereach, NY 11720",40.871647,40.871647,-73.082452
McDonalds,-73.251214,"536 Post Rd, Fairfield, CT 06824",41.14187,41.14187,-73.251214
McDonalds,-73.502698,"573 Jericho Tpke, Syosset, NY 11791",40.817051,40.817051,-73.502698
McDonalds,-122.272658,"304 2nd St Ne, Puyallup, WA 98372",47.201628,47.201628,-122.272658
McDonalds,-122.150382,"4056 Factoria Blvd Se, Bellevue, WA 98006",47.558502,47.558502,-122.150382
McDonalds,-122.623125,"3580 Wheaton Way, Bremerton, WA 98310",47.589148,47.589148,-122.623125
McDonalds,-122.134506,"17450 140th Ave Ne, Woodinville, WA 98072",47.757299,47.757299,-122.134506
McDonalds,-122.032235,"23225 Maple Valley Black Diamond Rd Se, Maple Valley, WA 98038",47.383439,47.383439,-122.032235
McDonalds,-74.404224,"361 State Route 18, East Brunswick, NJ 08816",40.42873,40.42873,-74.404224
McDonalds,-122.032235,"26924 Maple Valley Black Diamond Rd Se, Maple Valley, WA 98038",47.383439,47.383439,-122.032235
McDonalds,-122.447316,"11012 Pacific Ave S, Tacoma, WA 98444",47.154439,47.154439,-122.447316
McDonalds,-122.221136,"16320 Bothell Everett Hwy, Mill Creek, WA 98012",47.856078,47.856078,-122.221136
McDonalds,-122.33517,"1950 6th Ave, Seattle, WA 98101",47.611023,47.611023,-122.33517
McDonalds,-122.33517,"1601 5th Ave, Seattle, WA 98101",47.611023,47.611023,-122.33517
McDonalds,-122.33517,"1524 3rd Ave # D, Seattle, WA 98101",47.611023,47.611023,-122.33517
McDonalds,-122.346036,"100 Lenora St, Seattle, WA 98121",47.615487,47.615487,-122.346036
McDonalds,-122.346911,"222 5th Ave N, Seattle, WA 98109",47.62989,47.62989,-122.346911
McDonalds,-122.329291,"1122 Madison St, Seattle, WA 98104",47.602412,47.602412,-122.329291
McDonalds,-122.329291,"801 Alaskan Way, Seattle, WA 98104",47.602412,47.602412,-122.329291
McDonalds,-122.333443,"2401 4th Ave S, Seattle, WA 98134",47.57877,47.57877,-122.333443
McDonalds,-122.312973,"1416 S 348th St, Federal Way, WA 98003",47.31386,47.31386,-122.312973
McDonalds,-122.301833,"2336 25th Ave S, Seattle, WA 98144",47.584991,47.584991,-122.301833
McDonalds,-122.342697,"4501 Stone Way N, Seattle, WA 98103",47.670866,47.670866,-122.342697
McDonalds,-74.047336,"106 Route 59, Spring Valley, NY 10977",41.117384,41.117384,-74.047336
McDonalds,-122.298544,"5146 25th Ave Ne, Seattle, WA 98105",47.66354,47.66354,-122.298544
McDonalds,-122.374947,"5400 14th Ave Nw, Seattle, WA 98107",47.667315,47.667315,-122.374947
McDonalds,-122.312468,"6145 4th Ave S, Seattle, WA 98108",47.547544,47.547544,-122.312468
McDonalds,-122.228417,"2807 78th Ave SE, Mercer Island, WA 98040",47.56464,47.56464,-122.228417
McDonalds,-122.342697,"8533 Greenwood Ave N, Seattle, WA 98103",47.670866,47.670866,-122.342697
McDonalds,-122.275165,"6305 Martin Luther King Jr Way S, Seattle, WA 98118",47.542051,47.542051,-122.275165
McDonalds,-122.388366,"6546 California Ave Sw, Seattle, WA 98136",47.537646,47.537646,-122.388366
McDonalds,-122.379819,"9000 Holman Rd Nw, Seattle, WA 98117",47.687791,47.687791,-122.379819
McDonalds,-74.50017,"716 Bound Brook Rd, Middlesex, NJ 08846",40.578634,40.578634,-74.50017
McDonalds,-122.343869,"2137 N Northgate Way, Seattle, WA 98133",47.73877,47.73877,-122.343869
McDonalds,-122.312468,"9610 Des Moines Memorial Dr, Seattle, WA 98108",47.547544,47.547544,-122.312468
McDonalds,-122.275165,"9304 Rainier Ave S, Seattle, WA 98118",47.542051,47.542051,-122.275165
McDonalds,-122.356519,"1516 Sw 114th St, Seattle, WA 98146",47.500751,47.500751,-122.356519
McDonalds,-122.302266,"14507 Bothell Way Ne, Shoreline, WA 98155",47.757257,47.757257,-122.302266
McDonalds,-122.168508,"13841 NE 20th St, Bellevue, WA 98005",47.613556,47.613556,-122.168508
McDonalds,-122.343869,"15201 Aurora Ave N, Shoreline, WA 98133",47.73877,47.73877,-122.343869
McDonalds,-122.182237,"1705 Ne 44th St, Renton, WA 98056",47.509281,47.509281,-122.182237
McDonalds,-122.188505,"8515 124th Ave NE, Kirkland, WA 98033",47.678302,47.678302,-122.188505
McDonalds,-122.531902,"601 High School Rd NE, Bainbridge Island, WA 98110",47.642997,47.642997,-122.531902
McDonalds,-122.143244,"1401 156th Ave Ne, Bellevue, WA 98007",47.610379,47.610379,-122.143244
McDonalds,-74.127385,"610 Newman Springs Rd, Lincroft, NJ 07738",40.331424,40.331424,-74.127385
McDonalds,-122.182237,"13049 Newcastle Way, Newcastle, WA 98056",47.509281,47.509281,-122.182237
McDonalds,-122.143244,"3239 156th Ave Se, Bellevue, WA 98007",47.610379,47.610379,-122.143244
McDonalds,-122.198921,"12414 116th Ave Ne, Kirkland, WA 98034",47.717436,47.717436,-122.198921
McDonalds,-122.254239,"15210 Tukwila International Blvd, Tukwila, WA 98188",47.462201,47.462201,-122.254239
McDonalds,-122.328393,"15620 1st Ave S, Burien, WA 98148",47.444674,47.444674,-122.328393
McDonalds,-122.201646,"73 Rainier Ave S, Renton, WA 98055",47.448723,47.448723,-122.201646
McDonalds,-74.070142,"588 Shrewsbury Ave, Tinton Falls, NJ 07701",40.34921,40.34921,-74.070142
McDonalds,-122.198921,"12440 Ne 144th St, Kirkland, WA 98034",47.717436,47.717436,-122.198921
McDonalds,-122.121707,"16975 Redmond Way, Redmond, WA 98052",47.674108,47.674108,-122.121707
McDonalds,-122.302266,"20227 Ballinger Way Ne, Shoreline, WA 98155",47.757257,47.757257,-122.302266
McDonalds,-122.139874,"4411 Ne Sunset Blvd, Renton, WA 98059",47.49357,47.49357,-122.139874
McDonalds,-122.201646,"401 S Grady Way, Renton, WA 98055",47.448723,47.448723,-122.201646
McDonalds,-122.182237,"3209 Ne 4th St, Renton, WA 98056",47.509281,47.509281,-122.182237
McDonalds,-122.202205,"18012 Bothell Way Ne, Bothell, WA 98011",47.751392,47.751392,-122.202205
McDonalds,-122.254239,"16501 Southcenter Pkwy, Tukwila, WA 98188",47.462201,47.462201,-122.254239
McDonalds,-122.369744,"10124 Edmonds Way, Edmonds, WA 98020",47.800781,47.800781,-122.369744
McDonalds,-122.336077,"21420 Highway 99, Edmonds, WA 98026",47.825795,47.825795,-122.336077
McDonalds,-122.59871,"4225 Se Mile Hill Dr, Port Orchard, WA 98366",47.531499,47.531499,-122.59871
McDonalds,-122.201646,"17630 108th Ave Se, Renton, WA 98055",47.448723,47.448723,-122.201646
McDonalds,-122.218728,"22110 17th Ave Se, Bothell, WA 98021",47.79114,47.79114,-122.218728
McDonalds,-122.041373,"1305 NW Gilman Blvd, Issaquah, WA 98027",47.519282,47.519282,-122.041373
McDonalds,-122.042492,"615 228th Ave Ne, Sammamish, WA 98074",47.623284,47.623284,-122.042492
McDonalds,-122.28369,"19808 44th Ave W, Lynnwood, WA 98036",47.811293,47.811293,-122.28369
McDonalds,-122.28369,"19520 66th Ave W, Lynnwood, WA 98036",47.811293,47.811293,-122.28369
McDonalds,-122.144886,"14120 Se Petrovitsky Rd, Renton, WA 98058",47.445966,47.445966,-122.144886
McDonalds,-122.263383,"8320 S 212th St, Kent, WA 98032",47.386782,47.386782,-122.263383
McDonalds,-122.51558,"10977 Ne State Highway 104, Kingston, WA 98346",47.804959,47.804959,-122.51558
McDonalds,-122.312763,"22644 Pacific Hwy S, Des Moines, WA 98198",47.394491,47.394491,-122.312763
McDonalds,-122.697414,"3426 Kitsap Way, Bremerton, WA 98312",47.574395,47.574395,-122.697414
McDonalds,-122.288955,"17531 Highway 99, Lynnwood, WA 98037",47.839034,47.839034,-122.288955
McDonalds,-122.634915,"Poulsbo, WA 98370",47.745979,47.745979,-122.634915
McDonalds,-122.647666,"233 Bravo Ter, Port Orchard, WA 98367",47.469387,47.469387,-122.647666
McDonalds,-122.692854,"10444 Silverdale Way Nw, Silverdale, WA 98383",47.66217,47.66217,-122.692854
McDonalds,-122.692854,"10315 Silverdale Way Nw, Silverdale, WA 98383",47.66217,47.66217,-122.692854
McDonalds,-122.263383,"1236 W Meeker St, Kent, WA 98032",47.386782,47.386782,-122.263383
McDonalds,-122.288955,"1400 164th St Sw, Lynnwood, WA 98037",47.839034,47.839034,-122.288955
McDonalds,-122.19432,"10715 Se 240th St, Kent, WA 98031",47.404918,47.404918,-122.19432
McDonalds,-122.288955,"14923 Hwy 99, Lynnwood, WA 98037",47.839034,47.839034,-122.288955
McDonalds,-122.634915,"20533 Viking Ave Nw, Poulsbo, WA 98370",47.745979,47.745979,-122.634915
McDonalds,-122.195156,"10125 Se 256th St, Kent, WA 98030",47.369353,47.369353,-122.195156
McDonalds,-122.312973,"27515 Pacific Hwy S, Federal Way, WA 98003",47.31386,47.31386,-122.312973
McDonalds,-122.120528,"17520 State Route 9 SE, Snohomish, WA 98296",47.842921,47.842921,-122.120528
McDonalds,-122.120528,"17425 State Route 9 SE, Snohomish, WA 98296",47.842921,47.842921,-122.120528
McDonalds,-122.251419,"530 128th St Sw, Everett, WA 98204",47.899889,47.899889,-122.251419
McDonalds,-122.301735,"3717 Harbour Pointe Blvd Sw, Mukilteo, WA 98275",47.912693,47.912693,-122.301735
McDonalds,-122.221136,"3416 132nd St SE, Mill Creek, WA 98012",47.856078,47.856078,-122.221136
McDonalds,-122.312973,"2302 S 320th St, Federal Way, WA 98003",47.31386,47.31386,-122.312973
McDonalds,-122.195597,"316 Se Everett Mall Way, Everett, WA 98208",47.893873,47.893873,-122.195597
McDonalds,-122.216362,"1531 Auburn Way N, Auburn, WA 98002",47.304208,47.304208,-122.216362
McDonalds,-122.598849,"5050 Borgen Blvd Nw, Gig Harbor, WA 98332",47.36771,47.36771,-122.598849
McDonalds,-122.195597,"9606 19th Ave SE, Everett, WA 98208",47.893873,47.893873,-122.195597
McDonalds,-122.195597,"1402 SE Everett Mall Way, Everett, WA 98208",47.893873,47.893873,-122.195597
McDonalds,-122.224188,"7920 Evergreen Way, Everett, WA 98203",47.944042,47.944042,-122.224188
McDonalds,-122.270659,"1425 Supermall Way, Auburn, WA 98001",47.307652,47.307652,-122.270659
McDonalds,-122.216362,"702 Auburn Way S, Auburn, WA 98002",47.304208,47.304208,-122.216362
McDonalds,-122.270659,"1304 Supermall Way, Auburn, WA 98001",47.307652,47.307652,-122.270659
McDonalds,-121.957496,"13885 Fryelands Blvd, Monroe, WA 98272",47.856389,47.856389,-121.957496
McDonalds,-121.957496,"19515 State Route 2, Monroe, WA 98272",47.856389,47.856389,-121.957496
McDonalds,-122.051357,"917 Avenue D, Snohomish, WA 98290",47.935192,47.935192,-122.051357
McDonalds,-122.216362,"3920 A St Se, Auburn, WA 98002",47.304208,47.304208,-122.216362
McDonalds,-122.608058,"5500 Olympic Dr, Gig Harbor, WA 98335",47.301229,47.301229,-122.608058
McDonalds,-122.882257,"24200 Ne State Route 3, Belfair, WA 98528",47.434023,47.434023,-122.882257
McDonalds,-122.201173,"4020 Colby Ave, Everett, WA 98201",47.987788,47.987788,-122.201173
McDonalds,-122.440955,"802 Tacoma Ave S, Tacoma, WA 98402",47.248767,47.248767,-122.440955
McDonalds,-122.499999,"2203 N Pearl St, Tacoma, WA 98406",47.262502,47.262502,-122.499999
McDonalds,-122.580445,"Tacoma, WA 98401",47.170725,47.170725,-122.580445
McDonalds,-122.201173,"2001 Everett Ave, Everett, WA 98201",47.987788,47.987788,-122.201173
McDonalds,-121.782669,"735 SW Mt Si Blvd, North Bend, WA 98045",47.49327,47.49327,-121.782669
McDonalds,-122.481136,"4814 Center St, Tacoma, WA 98409",47.209897,47.209897,-122.481136
McDonalds,-122.534651,"6700 19th St W, University Place, WA 98466",47.22824,47.22824,-122.534651
McDonalds,-122.481136,"4502 S Steele St Ste 416 6, Tacoma, WA 98409",47.209897,47.209897,-122.481136
McDonalds,-122.534651,"3802 Bridgeport Way W, University Place, WA 98466",47.22824,47.22824,-122.534651
McDonalds,-122.074192,"507 State Route 9 NE, Lake Stevens, WA 98258",48.021671,48.021671,-122.074192
McDonalds,-122.232474,"1906 Main St, Sumner, WA 98390",47.203239,47.203239,-122.232474
McDonalds,-122.445189,"7217 Pacific Ave, Tacoma, WA 98408",47.198992,47.198992,-122.445189
McDonalds,-73.52845,"245 Pine Hollow Rd, Oyster Bay, NY 11771",40.866999,40.866999,-73.52845
McDonalds,-73.857396,"140 Wildey St, Tarrytown, NY 10591",41.081371,41.081371,-73.857396
McDonalds,-122.28548,"6303 33rd Ave Ne, Tulalip, WA 98271",48.068402,48.068402,-122.28548
McDonalds,-121.792717,"33901 State Route 2, Sultan, WA 98294",47.86607,47.86607,-121.792717
McDonalds,-122.557777,"8201 Steilacoom Blvd Sw, Lakewood, WA 98498",47.164776,47.164776,-122.557777
McDonalds,-122.410855,"10915 Portland Ave E, Tacoma, WA 98445",47.136413,47.136413,-122.410855
McDonalds,-73.674087,"321 Boston Post Rd, Port Chester, NY 10573",41.013542,41.013542,-73.674087
McDonalds,-122.507291,"6002 100th St SW, Lakewood, WA 98499",47.168104,47.168104,-122.507291
McDonalds,-122.232474,"21007 State Route 410 E, Bonney Lake, WA 98390",47.203239,47.203239,-122.232474
McDonalds,-122.322636,"4603 S Meridian, Puyallup, WA 98373",47.14889,47.14889,-122.322636
McDonalds,-121.414817,"110 Roosevelt Ave E, Enumclaw, WA 98022",47.121615,47.121615,-121.414817
McDonalds,-122.151215,"9720 State Ave, Marysville, WA 98270",48.062791,48.062791,-122.151215
McDonalds,-122.28548,"8924 34th Ave Ne, Tulalip, WA 98271",48.068402,48.068402,-122.28548
McDonalds,-122.447316,"14900 Pacific Ave S, Tacoma, WA 98444",47.154439,47.154439,-122.447316
McDonalds,-122.335869,"94th And South Hill Park Dr, Puyallup, WA 98371",47.171426,47.171426,-122.335869
McDonalds,-122.557777,"15004 Union Ave Sw, Lakewood, WA 98498",47.164776,47.164776,-122.557777
McDonalds,-122.318836,"17301 Meridian E, Puyallup, WA 98375",47.105439,47.105439,-122.318836
McDonalds,-121.906894,"502 W Stanley St, Granite Falls, WA 98252",48.06529,48.06529,-121.906894
McDonalds,-122.194477,"321 Washington Ave N, Orting, WA 98360",47.093045,47.093045,-122.194477
McDonalds,-122.390878,"20315 Mountain Hwy E, Spanaway, WA 98387",47.07173,47.07173,-122.390878
McDonalds,-122.101733,"3529 172nd St Ne, Arlington, WA 98223",48.187297,48.187297,-122.101733
McDonalds,-122.772577,"310 W Sims Way, Port Townsend, WA 98368",48.121205,48.121205,-122.772577
McDonalds,-122.101733,"7607 204th St Ne, Arlington, WA 98223",48.187297,48.187297,-122.101733
McDonalds,-122.317849,"26713 72nd Ave Nw, Stanwood, WA 98292",48.210098,48.210098,-122.317849
McDonalds,-123.082603,"100 E Wallace Kneeland Blvd, Shelton, WA 98584",47.225458,47.225458,-123.082603
McDonalds,-122.802003,"6000 Pacific Ave Se, Lacey, WA 98503",47.024839,47.024839,-122.802003
McDonalds,-123.082603,"2507 Olympic Hwy N, Shelton, WA 98584",47.225458,47.225458,-123.082603
McDonalds,-122.802003,"520 Sleater Kinney Rd Se, Lacey, WA 98503",47.024839,47.024839,-122.802003
McDonalds,-122.878191,"715 Plum St Se, Olympia, WA 98501",47.011663,47.011663,-122.878191
McDonalds,-122.949888,"2611 Harrison Ave Nw, Olympia, WA 98502",47.067468,47.067468,-122.949888
McDonalds,-123.104874,"107 S 7th Ave, Sequim, WA 98382",48.07829,48.07829,-123.104874
McDonalds,-122.753196,"4640 Whitman Ln Se, Lacey, WA 98513",47.007277,47.007277,-122.753196
McDonalds,-122.643786,"841 NE Midway Blvd, Oak Harbor, WA 98277",48.3067,48.3067,-122.643786
McDonalds,-122.643786,"100 Charles Porter Ave, Oak Harbor, WA 98277",48.3067,48.3067,-122.643786
McDonalds,-73.51081,"1946 Wantagh Ave, Wantagh, NY 11793",40.673859,40.673859,-73.51081
McDonalds,-77.193553,"3009 Gallows Rd, Falls Church, VA 22042",38.866242,38.866242,-77.193553
McDonalds,-77.384017,"13003 Lee Jackson Memorial Hwy, Fairfax, VA 22033",38.873386,38.873386,-77.384017
McDonalds,-77.183624,"6333 Brandon Ave, Springfield, VA 22150",38.77497,38.77497,-77.183624
McDonalds,-74.33925,"4 Riverside Sq, Bloomingdale, NJ 07403",41.008116,41.008116,-74.33925
McDonalds,-77.516788,"Nokesville Road, Manassas, VA 20109",38.786099,38.786099,-77.516788
McDonalds,-77.478301,"2300 Plank Rd, Fredericksburg, VA 22401",38.299676,38.299676,-77.478301
McDonalds,-76.449346,"1000 Eastern Blvd, Essex, MD 21221",39.307085,39.307085,-76.449346
McDonalds,-76.917179,"6219 Greenbelt Rd, Berwyn Heights, MD 20740",38.99169,38.99169,-76.917179
McDonalds,-77.334457,"3924 Old Lee Hwy, Fairfax, VA 22030",38.848601,38.848601,-77.334457
McDonalds,-77.334457,"10775 Lee Hwy, Fairfax, VA 22030",38.848601,38.848601,-77.334457
McDonalds,-77.476949,"9860 Liberia Ave, Manassas, VA 20110",38.750852,38.750852,-77.476949
McDonalds,-77.065389,"Route 210, Bryans Road, MD 20616",38.630515,38.630515,-77.065389
McDonalds,-76.617404,"680 Old Mill Rd, Millersville, MD 21108",39.099116,39.099116,-76.617404
McDonalds,-77.021764,"450 5th St Nw, Washington, DC 20001",38.90229,38.90229,-77.021764
McDonalds,-76.989089,"75 New York Ave NE, Washington, DC 20002",38.90404,38.90404,-76.989089
McDonalds,-77.031091,"1235 New York Ave NW, Washington, DC 20005",38.904229,38.904229,-77.031091
McDonalds,-77.023889,"400 C St SW, Washington, DC 20024",38.881064,38.881064,-77.023889
McDonalds,-77.021764,"700 Jefferson Dr SW, Washington, DC 20001",38.90229,38.90229,-77.021764
McDonalds,-76.989089,"839 H St NE, Washington, DC 20002",38.90404,38.90404,-76.989089
McDonalds,-77.041594,"750 17th St Nw, Washington, DC 20006",38.89892,38.89892,-77.041594
McDonalds,-73.522183,"358 Broadway Mall, Hicksville, NY 11801",40.763495,40.763495,-73.522183
McDonalds,-76.974277,"1901 9th St Ne, Washington, DC 20018",38.928647,38.928647,-76.974277
McDonalds,-77.021764,"2328 Georgia Ave Nw, Washington, DC 20001",38.90229,38.90229,-77.021764
McDonalds,-77.059088,"2616 Connecticut Ave NW, Washington, DC 20008",38.93363,38.93363,-77.059088
McDonalds,-77.073916,"1823 N Moore St, Arlington, VA 22209",38.894243,38.894243,-77.073916
McDonalds,-77.057431,"1100 S Hayes St, Arlington, VA 22202",38.855251,38.855251,-77.057431
McDonalds,-76.973292,"2529 Good Hope Rd SE, Washington, DC 20020",38.863436,38.863436,-76.973292
McDonalds,-77.057431,"2155 Crystal Plaza Arc, Arlington, VA 22202",38.855251,38.855251,-77.057431
McDonalds,-76.99297,"4950 S Dakota Ave NE, Washington, DC 20017",38.93937,38.93937,-76.99297
McDonalds,-77.057431,"2620 Jefferson Davis Hwy, Arlington, VA 22202",38.855251,38.855251,-77.057431
McDonalds,-77.063733,"121 W Glebe Rd, Alexandria, VA 22305",38.835718,38.835718,-77.063733
McDonalds,-76.905085,"4857 Marlboro Pike, Capitol Heights, MD 20743",38.885787,38.885787,-76.905085
McDonalds,-76.99092,"801 Southern Ave, Oxon Hill, MD 20745",38.807254,38.807254,-76.99092
McDonalds,-77.114979,"40 N Glebe Rd, Arlington, VA 22203",38.874593,38.874593,-77.114979
McDonalds,-76.941256,"3501 Branch Ave, Temple Hills, MD 20748",38.823627,38.823627,-76.941256
McDonalds,-74.296507,"Us Highway 9, Sayreville, NJ 08871",40.471082,40.471082,-74.296507
McDonalds,-76.96423,"3500 E West Hwy, Hyattsville, MD 20782",38.96328,38.96328,-76.96423
McDonalds,-77.066537,"5300 Wisconsin Ave NW, Washington, DC 20015",38.966259,38.966259,-77.066537
McDonalds,-77.028729,"7425 Georgia Ave Nw, Washington, DC 20012",38.977807,38.977807,-77.028729
McDonalds,-76.99092,"5501 Livingston Rd, Oxon Hill, MD 20745",38.807254,38.807254,-76.99092
McDonalds,-76.921289,"4835 Silver Hill Rd, Suitland, MD 20746",38.841534,38.841534,-76.921289
McDonalds,-77.053324,"1000 N Henry St, Alexandria, VA 22314",38.807622,38.807622,-77.053324
McDonalds,-77.114979,"5009 Wilson Blvd, Arlington, VA 22203",38.874593,38.874593,-77.114979
McDonalds,-77.097805,"5005 Columbia Pike, Arlington, VA 22204",38.861316,38.861316,-77.097805
McDonalds,-77.096919,"Bethesda Naval Base, Bethesda, MD 20813",38.98637,38.98637,-77.096919
McDonalds,-77.097012,"Montgomery Mall, Bethesda, MD 20813",38.986256,38.986256,-77.097012
McDonalds,-76.919109,"6228 Baltimore Ave, Riverdale, MD 20737",38.961653,38.961653,-76.919109
McDonalds,-76.905085,"6131 Martin Luther King Jr Hwy, Capitol Heights, MD 20743",38.885787,38.885787,-76.905085
McDonalds,-76.890408,"6200 Annapolis Rd, Hyattsville, MD 20784",38.951658,38.951658,-76.890408
McDonalds,-77.084313,"3646 King St, Alexandria, VA 22302",38.828304,38.828304,-77.084313
McDonalds,-76.99092,"5500 Saint Barnabas Rd, Oxon Hill, MD 20745",38.807254,38.807254,-76.99092
McDonalds,-77.125916,"4834 Lee Hwy, Arlington, VA 22207",38.904359,38.904359,-77.125916
McDonalds,-76.972208,"2306 University Blvd E, Hyattsville, MD 20783",38.992352,38.992352,-76.972208
McDonalds,-77.139916,"5113 Leesburg Pike Ste 309 9, Falls Church, VA 22041",38.848842,38.848842,-77.139916
McDonalds,-76.919109,"5600 Riverdale Rd, Riverdale, MD 20737",38.961653,38.961653,-76.919109
McDonalds,-73.522183,"195 N Broadway, Hicksville, NY 11801",40.763495,40.763495,-73.522183
McDonalds,-77.053324,"619 King St, Alexandria, VA 22314",38.807622,38.807622,-77.053324
McDonalds,-77.115435,"5214 River Rd, Bethesda, MD 20816",38.959,38.959,-77.115435
McDonalds,-76.99092,"6126 Oxon Hill Rd, Oxon Hill, MD 20745",38.807254,38.807254,-76.99092
McDonalds,-77.034219,"8507 Colesville Rd, Silver Spring, MD 20910",39.001566,39.001566,-77.034219
McDonalds,-76.905085,"1420 Addison Rd S, Capitol Heights, MD 20743",38.885787,38.885787,-76.905085
McDonalds,-77.139916,"5603 Leesburg Pike, Falls Church, VA 22041",38.848842,38.848842,-77.139916
McDonalds,-76.926406,"7310 Baltimore Ave, College Park, MD 20740",38.998325,38.998325,-76.926406
McDonalds,-77.034219,"8637 16th St, Silver Spring, MD 20910",39.001566,39.001566,-77.034219
McDonalds,-77.109849,"4500 E West Hwy, Bethesda, MD 20814",39.00169,39.00169,-77.109849
McDonalds,-77.154787,"6165 Arlington Blvd, Falls Church, VA 22044",38.863089,38.863089,-77.154787
McDonalds,-77.115628,"3510 Duke St, Alexandria, VA 22304",38.814711,38.814711,-77.115628
McDonalds,-73.76563,"200 Hamilton Ave, White Plains, NY 10601",41.03286,41.03286,-73.76563
McDonalds,-73.522183,"280 N Broadway, Hicksville, NY 11801",40.763495,40.763495,-73.522183
McDonalds,-77.12135,"1468 N Beauregard St, Alexandria, VA 22311",38.834756,38.834756,-77.12135
McDonalds,-77.169011,"6232 Old Dominion Dr, Mc Lean, VA 22101",38.93328,38.93328,-77.169011
McDonalds,-76.887321,"6704 Chavez Ln, District Heights, MD 20747",38.854582,38.854582,-76.887321
McDonalds,-76.972208,"9119 Riggs Rd, Adelphi, MD 20783",38.992352,38.992352,-76.972208
McDonalds,-76.926406,"8301 Baltimore Ave, College Park, MD 20740",38.998325,38.998325,-76.926406
McDonalds,-76.890408,"7570 Annapolis Rd, Hyattsville, MD 20784",38.951658,38.951658,-76.890408
McDonalds,-76.905085,"20 Ritchie Rd, Capitol Heights, MD 20743",38.885787,38.885787,-76.905085
McDonalds,-77.010524,"519 N Route 301 la Plata, Takoma Park, MD 20901",39.019752,39.019752,-77.010524
McDonalds,-77.010524,"106 University Blvd W, Silver Spring, MD 20901",39.019752,39.019752,-77.010524
McDonalds,-76.984011,"7100 Allentown Rd, Fort Washington, MD 20744",38.753594,38.753594,-76.984011
McDonalds,-76.877779,"8710 Central Ave, Hyattsville, MD 20785",38.914969,38.914969,-76.877779
McDonalds,-77.079286,"6239 Richmond Hwy, Alexandria, VA 22303",38.792447,38.792447,-77.079286
McDonalds,-76.921289,"4777 Allentown Rd, Suitland, MD 20746",38.841534,38.841534,-76.921289
McDonalds,-76.882522,"6000 Greenbelt Rd, Greenbelt, MD 20770",38.995407,38.995407,-76.882522
McDonalds,-77.043079,"6302 Little River Tpke, Alexandria, VA 22312",38.804565,38.804565,-77.043079
McDonalds,-77.193553,"6729 Arlington Blvd, Falls Church, VA 22042",38.866242,38.866242,-77.193553
McDonalds,-77.115628,"505 S Van Dorn St, Alexandria, VA 22304",38.814711,38.814711,-77.115628
McDonalds,-77.169011,"6808 Elm St, Mc Lean, VA 22101",38.93328,38.93328,-77.169011
McDonalds,-76.851827,"9007 Annapolis Rd, Lanham Seabrook, MD 20706",38.96407,38.96407,-76.851827
McDonalds,-76.805854,"1030 Largo Center Dr, Upper Marlboro, MD 20774",38.88875,38.88875,-76.805854
McDonalds,-77.198076,"7101 Leesburg Pike, Falls Church, VA 22043",38.900542,38.900542,-77.198076
McDonalds,-77.169011,"6920 Old Dominion Dr, Mc Lean, VA 22101",38.93328,38.93328,-77.169011
McDonalds,-77.124431,"6020 Rose Hill Dr, Alexandria, VA 22310",38.78364,38.78364,-77.124431
McDonalds,-76.984011,"9596 Livingston Rd, Fort Washington, MD 20744",38.753594,38.753594,-76.984011
McDonalds,-76.975384,"11146 New Hampshire Ave, Silver Spring, MD 20904",39.067898,39.067898,-76.975384
McDonalds,-77.193553,"7265 Arlington Blvd, Falls Church, VA 22042",38.866242,38.866242,-77.193553
McDonalds,-77.047789,"11160 Veirs Mill Rd, Silver Spring, MD 20902",39.042301,39.042301,-77.047789
McDonalds,-76.899495,"6505 Old Alexandria Ferry Rd, Clinton, MD 20735",38.75731,38.75731,-76.899495
McDonalds,-77.077838,"2741 University Blvd W, Kensington, MD 20895",39.028463,39.028463,-77.077838
McDonalds,-77.124431,"5600 Franconia Rd, Alexandria, VA 22310",38.78364,38.78364,-77.124431
McDonalds,-76.740273,"501 Frederick Rd, Catonsville, MD 21228",39.27599,39.27599,-76.740273
McDonalds,-76.912915,"10531 Baltimore Ave, Beltsville, MD 20705",39.045332,39.045332,-76.912915
McDonalds,-76.851827,"9452 Lanham Severn Rd, Lanham Seabrook, MD 20706",38.96407,38.96407,-76.851827
McDonalds,-77.084111,"7614 Richmond Hwy, Alexandria, VA 22306",38.757134,38.757134,-77.084111
McDonalds,-77.21323,"7010 Bradlick Shopping Ctr, Annandale, VA 22003",38.830774,38.830774,-77.21323
McDonalds,-76.912915,"4000 Powder Mill Rd, Beltsville, MD 20705",39.045332,39.045332,-76.912915
McDonalds,-77.148402,"5885 Kingstowne Blvd, Alexandria, VA 22315",38.759606,38.759606,-77.148402
McDonalds,-77.061432,"12312 Georgia Ave, Silver Spring, MD 20906",39.082294,39.082294,-77.061432
McDonalds,-73.764154,"60 S Broadway, White Plains, NY 10601",41.03354,41.03354,-73.764154
McDonalds,-73.803269,"100 Main St, White Plains, NY 10601",41.048025,41.048025,-73.803269
McDonalds,-77.21323,"7600 Little River Tpke, Annandale, VA 22003",38.830774,38.830774,-77.21323
McDonalds,-74.471489,"1301 Stelton Rd, Piscataway, NJ 08854",40.539255,40.539255,-74.471489
McDonalds,-77.222849,"1961 Chain Bridge Rd, Mc Lean, VA 22102",38.936309,38.936309,-77.222849
McDonalds,-77.061432,"12135 Veirs Mill Rd, Silver Spring, MD 20906",39.082294,39.082294,-77.061432
McDonalds,-77.124548,"11564 Rockville Pike, Rockville, MD 20852",39.051691,39.051691,-77.124548
McDonalds,-76.796948,"12168 Central Ave, Bowie, MD 20721",38.914958,38.914958,-76.796948
McDonalds,-76.984011,"996 Swan Creek Rd E, Fort Washington, MD 20744",38.753594,38.753594,-76.984011
McDonalds,-77.263713,"2751 Prosperity Ave, Fairfax, VA 22031",38.859361,38.859361,-77.263713
McDonalds,-74.225474,"1108 State Route 34, Matawan, NJ 07747",40.406895,40.406895,-74.225474
McDonalds,-77.148402,"7580 Telegraph Rd, Alexandria, VA 22315",38.759606,38.759606,-77.148402
McDonalds,-77.257702,"2089 Chain Bridge Rd, Vienna, VA 22182",38.926651,38.926651,-77.257702
